[{"key": 0, "name": " אושר עד גבעת שאול", "city": " ירושלים", "address": " בית הדפוס 29 ", "location": {"lat": 31.7852588, "lng": 35.1830189}, "datetime": [{"key": 0, "date": " 24/02/2021", "time_start": "14:30", "time_end": "16:30"}, {"key": 938, "date": " 18/02/2021", "time_start": "22:00", "time_end": "22:30"}, {"key": 1462, "date": " 17/02/2021", "time_start": "18:00", "time_end": "20:00"}, {"key": 1995, "date": " 16/02/2021", "time_start": "20:30", "time_end": "22:00"}, {"key": 2031, "date": " 16/02/2021", "time_start": "18:00", "time_end": "21:00"}, {"key": 2265, "date": " 16/02/2021", "time_start": "12:00", "time_end": "15:00"}, {"key": 4484, "date": " 13/02/2021", "time_start": "19:00", "time_end": "22:00"}, {"key": 4917, "date": " 12/02/2021", "time_start": "12:00", "time_end": "13:00"}, {"key": 5671, "date": " 11/02/2021", "time_start": "15:40", "time_end": "15:55"}, {"key": 5834, "date": " 11/02/2021", "time_start": "12:00", "time_end": "13:00"}, {"key": 5933, "date": " 11/02/2021", "time_start": "10:00", "time_end": "12:00"}]}, {"key": 1, "name": " חניון אצטדיון כפר סבא", "city": " כפר סבא", "address": " בן יהודה 102 ", "location": {"lat": 32.1808053, "lng": 34.9268865}, "datetime": [{"key": 1, "date": " 24/02/2021", "time_start": "14:30", "time_end": "14:45"}, {"key": 16, "date": " 23/02/2021", "time_start": "14:00", "time_end": "14:20"}, {"key": 26, "date": " 23/02/2021", "time_start": "10:00", "time_end": "10:31"}, {"key": 126, "date": " 22/02/2021", "time_start": "11:30", "time_end": "11:40"}, {"key": 372, "date": " 21/02/2021", "time_start": "11:40", "time_end": "12:00"}, {"key": 1522, "date": " 17/02/2021", "time_start": "16:00", "time_end": "16:30"}, {"key": 2858, "date": " 15/02/2021", "time_start": "16:30", "time_end": "17:00"}, {"key": 3129, "date": " 15/02/2021", "time_start": "09:30", "time_end": "10:00"}, {"key": 3153, "date": " 15/02/2021", "time_start": "09:00", "time_end": "10:00"}, {"key": 3886, "date": " 14/02/2021", "time_start": "12:00", "time_end": "12:41"}, {"key": 3928, "date": " 14/02/2021", "time_start": "11:00", "time_end": "12:00"}, {"key": 3947, "date": " 14/02/2021", "time_start": "10:31", "time_end": "11:00"}, {"key": 3960, "date": " 14/02/2021", "time_start": "10:26", "time_end": "11:00"}]}, {"key": 2, "name": " בית בלב", "city": " פתח תקווה", "address": " דנמרק 36 ", "location": {"lat": 32.0857658, "lng": 34.8628768}, "datetime": [{"key": 2, "date": " 24/02/2021", "time_start": "08:00", "time_end": "10:00"}]}, {"key": 3, "name": " מתחם קורונה", "city": " אשדוד", "address": " דרך ארץ  ", "location": {"lat": 31.7923813, "lng": 34.6353794}, "datetime": [{"key": 3, "date": " 23/02/2021", "time_start": "20:00", "time_end": "20:20"}, {"key": 1601, "date": " 17/02/2021", "time_start": "13:00", "time_end": "14:00"}]}, {"key": 4, "name": " יש חסד", "city": " ירושלים", "address": " ברכת אברהם 22 ", "location": {"lat": 31.8117264, "lng": 35.2173772}, "datetime": [{"key": 4, "date": " 23/02/2021", "time_start": "19:00", "time_end": "19:30"}, {"key": 5697, "date": " 11/02/2021", "time_start": "15:00", "time_end": "16:00"}]}, {"key": 5, "name": " העמק", "city": " עפולה", "address": " ", "location": {"lat": 32.6210762, "lng": 35.3165964}, "datetime": [{"key": 5, "date": " 23/02/2021", "time_start": "18:30", "time_end": "20:30"}, {"key": 1265, "date": " 18/02/2021", "time_start": "08:00", "time_end": "09:00"}, {"key": 1371, "date": " 18/02/2021", "time_start": "07:00", "time_end": "13:00"}, {"key": 1971, "date": " 17/02/2021", "time_start": "00:00", "time_end": "01:30"}, {"key": 2042, "date": " 16/02/2021", "time_start": "18:00", "time_end": "23:59"}, {"key": 2949, "date": " 15/02/2021", "time_start": "14:00", "time_end": "18:00"}, {"key": 3473, "date": " 15/02/2021", "time_start": "00:00", "time_end": "00:00"}, {"key": 6901, "date": " 10/02/2021", "time_start": "11:00", "time_end": "14:00"}]}, {"key": 6, "name": " גט לק", "city": " שדרות", "address": " שד בגין מנחם  ", "location": {"lat": 31.5167147, "lng": 34.5896274}, "datetime": [{"key": 6, "date": " 23/02/2021", "time_start": "18:00", "time_end": "21:00"}, {"key": 301, "date": " 21/02/2021", "time_start": "16:00", "time_end": "23:00"}, {"key": 755, "date": " 19/02/2021", "time_start": "11:00", "time_end": "16:00"}]}, {"key": 7, "name": " פוריות מא ועד ת", "city": " תל אביב - יפו", "address": " ", "location": {"lat": 32.079431, "lng": 34.775267}, "datetime": [{"key": 7, "date": " 23/02/2021", "time_start": "17:00", "time_end": "18:00"}]}, {"key": 8, "name": " דואר", "city": " תל אביב - יפו", "address": " החשמונאים 88 ", "location": {"lat": 32.0694088, "lng": 34.7835154}, "datetime": [{"key": 8, "date": " 23/02/2021", "time_start": "16:40", "time_end": "16:50"}]}, {"key": 9, "name": " חנות דקטלון", "city": " ראשון לציון", "address": "  4 ", "location": {"lat": 31.9873162, "lng": 34.7652071}, "datetime": [{"key": 9, "date": " 23/02/2021", "time_start": "15:15", "time_end": "15:30"}]}, {"key": 10, "name": " אלי זול", "city": " נתיבות", "address": " ", "location": {"lat": 31.4167401, "lng": 34.5719989}, "datetime": [{"key": 10, "date": " 23/02/2021", "time_start": "15:00", "time_end": "15:30"}, {"key": 2827, "date": " 15/02/2021", "time_start": "17:00", "time_end": "17:15"}]}, {"key": 11, "name": " חוות סוסים אינטרה בני ציון", "city": " בני ציון", "address": "  181 ", "location": {"lat": 32.2200529, "lng": 34.8716467}, "datetime": [{"key": 11, "date": " 23/02/2021", "time_start": "15:00", "time_end": "16:00"}]}, {"key": 12, "name": " מקס סטוק באר שבע", "city": " באר שבע", "address": " שדרת חיל הנדסה  ", "location": {"lat": 31.2436507, "lng": 34.8135493}, "datetime": [{"key": 12, "date": " 23/02/2021", "time_start": "15:00", "time_end": "15:30"}, {"key": 237, "date": " 21/02/2021", "time_start": "19:40", "time_end": "20:10"}, {"key": 3681, "date": " 14/02/2021", "time_start": "16:00", "time_end": "18:30"}, {"key": 5901, "date": " 11/02/2021", "time_start": "11:00", "time_end": "12:00"}]}, {"key": 13, "name": " סופר זול", "city": " תל אביב - יפו", "address": " ארלוזורוב 147 ", "location": {"lat": 32.0794928, "lng": 34.8142401}, "datetime": [{"key": 13, "date": " 23/02/2021", "time_start": "15:00", "time_end": "22:30"}, {"key": 95, "date": " 22/02/2021", "time_start": "15:00", "time_end": "22:30"}, {"key": 1563, "date": " 17/02/2021", "time_start": "15:00", "time_end": "22:30"}]}, {"key": 14, "name": " בדיקת ראיה", "city": " ראשון לציון", "address": "  4 ", "location": {"lat": 31.9868777, "lng": 34.7656732}, "datetime": [{"key": 14, "date": " 23/02/2021", "time_start": "14:30", "time_end": "15:15"}]}, {"key": 15, "name": " מסעדת גוצה", "city": " תל אביב - יפו", "address": " דיזנגוף 171 ", "location": {"lat": 32.0845876, "lng": 34.7742132}, "datetime": [{"key": 15, "date": " 23/02/2021", "time_start": "14:30", "time_end": "14:45"}]}, {"key": 17, "name": " לילוש", "city": " תל אביב - יפו", "address": " פרישמן 73 ", "location": {"lat": 32.079721, "lng": 34.778925}, "datetime": [{"key": 17, "date": " 23/02/2021", "time_start": "14:00", "time_end": "14:25"}]}, {"key": 18, "name": " סופר פארם", "city": " בת ים", "address": " שד העצמאות 67 ", "location": {"lat": 32.0281114, "lng": 34.748518}, "datetime": [{"key": 18, "date": " 23/02/2021", "time_start": "13:31", "time_end": "14:00"}]}, {"key": 19, "name": " ביג פאשן HM אשדוד", "city": " אשדוד", "address": "  1 ", "location": {"lat": 31.7766348, "lng": 34.6637991}, "datetime": [{"key": 19, "date": " 23/02/2021", "time_start": "13:30", "time_end": "22:30"}, {"key": 195, "date": " 22/02/2021", "time_start": "07:00", "time_end": "16:30"}, {"key": 5540, "date": " 11/02/2021", "time_start": "17:40", "time_end": "18:59"}, {"key": 7073, "date": " 10/02/2021", "time_start": "08:00", "time_end": "10:00"}]}, {"key": 20, "name": " אולם הספורט החדש באופקים", "city": " אופקים", "address": " ", "location": {"lat": 31.3047346, "lng": 34.6187149}, "datetime": [{"key": 20, "date": " 23/02/2021", "time_start": "12:30", "time_end": "13:00"}, {"key": 376, "date": " 21/02/2021", "time_start": "11:00", "time_end": "11:30"}]}, {"key": 21, "name": " אסף הרופא", "city": " באר יעקב", "address": " ", "location": {"lat": 31.9659661, "lng": 34.8381467}, "datetime": [{"key": 21, "date": " 23/02/2021", "time_start": "12:00", "time_end": "17:00"}, {"key": 360, "date": " 21/02/2021", "time_start": "12:00", "time_end": "17:00"}, {"key": 1263, "date": " 18/02/2021", "time_start": "08:00", "time_end": "15:00"}, {"key": 2252, "date": " 16/02/2021", "time_start": "12:00", "time_end": "17:00"}, {"key": 2286, "date": " 16/02/2021", "time_start": "11:00", "time_end": "12:30"}, {"key": 4283, "date": " 14/02/2021", "time_start": "07:00", "time_end": "15:30"}, {"key": 5289, "date": " 12/02/2021", "time_start": "07:00", "time_end": "12:00"}, {"key": 5427, "date": " 11/02/2021", "time_start": "20:00", "time_end": "20:20"}, {"key": 6275, "date": " 11/02/2021", "time_start": "07:00", "time_end": "15:00"}, {"key": 7249, "date": " 10/02/2021", "time_start": "07:00", "time_end": "20:00"}, {"key": 7355, "date": " 10/02/2021", "time_start": "00:00", "time_end": "00:00"}]}, {"key": 22, "name": " אמישראגז", "city": " אריאל", "address": " יהודה 10 ", "location": {"lat": 32.1053116, "lng": 35.172364}, "datetime": [{"key": 22, "date": " 23/02/2021", "time_start": "11:00", "time_end": "14:00"}]}, {"key": 23, "name": " קופת חולים מאוחדת", "city": " אשדוד", "address": " רבי יהודה הנשיא  ", "location": {"lat": 31.7918343, "lng": 34.6655798}, "datetime": [{"key": 23, "date": " 23/02/2021", "time_start": "11:00", "time_end": "11:20"}]}, {"key": 24, "name": " תחנת קורונה", "city": " ירושלים", "address": " ", "location": {"lat": 31.768319, "lng": 35.21371}, "datetime": [{"key": 24, "date": " 23/02/2021", "time_start": "10:30", "time_end": "11:00"}, {"key": 32, "date": " 23/02/2021", "time_start": "08:30", "time_end": "08:45"}, {"key": 41, "date": " 23/02/2021", "time_start": "07:50", "time_end": "08:00"}, {"key": 97, "date": " 22/02/2021", "time_start": "14:30", "time_end": "15:00"}, {"key": 175, "date": " 22/02/2021", "time_start": "08:00", "time_end": "12:00"}, {"key": 356, "date": " 21/02/2021", "time_start": "13:00", "time_end": "13:15"}, {"key": 534, "date": " 21/02/2021", "time_start": "00:00", "time_end": "00:00"}, {"key": 567, "date": " 20/02/2021", "time_start": "18:00", "time_end": "19:00"}, {"key": 1457, "date": " 17/02/2021", "time_start": "19:00", "time_end": "20:00"}, {"key": 1722, "date": " 17/02/2021", "time_start": "09:00", "time_end": "13:00"}, {"key": 1962, "date": " 17/02/2021", "time_start": "00:00", "time_end": "23:59"}, {"key": 1993, "date": " 16/02/2021", "time_start": "21:30", "time_end": "22:00"}, {"key": 2336, "date": " 16/02/2021", "time_start": "10:00", "time_end": "22:00"}, {"key": 2695, "date": " 16/02/2021", "time_start": "00:00", "time_end": "23:59"}, {"key": 2736, "date": " 15/02/2021", "time_start": "20:20", "time_end": "23:59"}, {"key": 3112, "date": " 15/02/2021", "time_start": "10:00", "time_end": "20:00"}, {"key": 3183, "date": " 15/02/2021", "time_start": "09:00", "time_end": "15:30"}, {"key": 3371, "date": " 15/02/2021", "time_start": "07:00", "time_end": "23:00"}, {"key": 3469, "date": " 15/02/2021", "time_start": "00:00", "time_end": "07:00"}, {"key": 3471, "date": " 15/02/2021", "time_start": "00:00", "time_end": "00:00"}, {"key": 3904, "date": " 14/02/2021", "time_start": "12:00", "time_end": "12:10"}, {"key": 3992, "date": " 14/02/2021", "time_start": "10:00", "time_end": "22:00"}, {"key": 4280, "date": " 14/02/2021", "time_start": "07:00", "time_end": "23:00"}, {"key": 4645, "date": " 13/02/2021", "time_start": "10:00", "time_end": "22:00"}, {"key": 4700, "date": " 13/02/2021", "time_start": "07:00", "time_end": "23:00"}, {"key": 4723, "date": " 13/02/2021", "time_start": "00:00", "time_end": "07:00"}, {"key": 4846, "date": " 12/02/2021", "time_start": "14:00", "time_end": "15:00"}, {"key": 5015, "date": " 12/02/2021", "time_start": "11:00", "time_end": "12:00"}, {"key": 5093, "date": " 12/02/2021", "time_start": "10:00", "time_end": "22:00"}, {"key": 5288, "date": " 12/02/2021", "time_start": "07:00", "time_end": "23:00"}, {"key": 5356, "date": " 12/02/2021", "time_start": "00:00", "time_end": "07:00"}, {"key": 5383, "date": " 12/02/2021", "time_start": "00:00", "time_end": "00:00"}, {"key": 5946, "date": " 11/02/2021", "time_start": "10:00", "time_end": "22:00"}, {"key": 6090, "date": " 11/02/2021", "time_start": "08:00", "time_end": "13:00"}, {"key": 6091, "date": " 11/02/2021", "time_start": "08:00", "time_end": "13:00"}, {"key": 6385, "date": " 11/02/2021", "time_start": "00:00", "time_end": "07:00"}, {"key": 6962, "date": " 10/02/2021", "time_start": "10:00", "time_end": "22:00"}, {"key": 7081, "date": " 10/02/2021", "time_start": "08:00", "time_end": "13:00"}, {"key": 7082, "date": " 10/02/2021", "time_start": "08:00", "time_end": "13:00"}, {"key": 7247, "date": " 10/02/2021", "time_start": "07:00", "time_end": "23:00"}]}, {"key": 25, "name": " המכון להתפתחות הילד", "city": " באר שבע", "address": " התקוה 4 ", "location": {"lat": 31.2437488, "lng": 34.7949243}, "datetime": [{"key": 25, "date": " 23/02/2021", "time_start": "10:00", "time_end": "11:00"}]}, {"key": 27, "name": " מתחם חיסונים", "city": " תל אביב - יפו", "address": " הגליל 6 ", "location": {"lat": 32.060967, "lng": 34.7785918}, "datetime": [{"key": 27, "date": " 23/02/2021", "time_start": "10:00", "time_end": "18:00"}, {"key": 148, "date": " 22/02/2021", "time_start": "10:00", "time_end": "18:00"}, {"key": 403, "date": " 21/02/2021", "time_start": "10:00", "time_end": "18:00"}, {"key": 590, "date": " 20/02/2021", "time_start": "14:00", "time_end": "16:00"}, {"key": 881, "date": " 19/02/2021", "time_start": "08:00", "time_end": "14:00"}, {"key": 1315, "date": " 18/02/2021", "time_start": "08:00", "time_end": "18:00"}, {"key": 1691, "date": " 17/02/2021", "time_start": "10:00", "time_end": "18:00"}, {"key": 1824, "date": " 17/02/2021", "time_start": "08:00", "time_end": "18:00"}, {"key": 2342, "date": " 16/02/2021", "time_start": "10:00", "time_end": "18:00"}]}, {"key": 28, "name": " פרש מרקט ביאליק", "city": " קרית ביאליק", "address": " קרן היסוד 1-7 ", "location": {"lat": 32.828542, "lng": 35.0838478}, "datetime": [{"key": 28, "date": " 23/02/2021", "time_start": "10:00", "time_end": "10:30"}, {"key": 5757, "date": " 11/02/2021", "time_start": "14:00", "time_end": "14:30"}]}, {"key": 29, "name": " מתחם לבדיקת קורונה", "city": " תל אביב - יפו", "address": " הרצל 89 ", "location": {"lat": 32.0554056, "lng": 34.770949}, "datetime": [{"key": 29, "date": " 23/02/2021", "time_start": "09:50", "time_end": "10:00"}]}, {"key": 30, "name": " מכללת BDO", "city": " תל אביב - יפו", "address": " דרך בגין 48 ", "location": {"lat": 32.0630657, "lng": 34.780368}, "datetime": [{"key": 30, "date": " 23/02/2021", "time_start": "09:00", "time_end": "10:30"}]}, {"key": 31, "name": " בדיקת קורונה", "city": " חולון", "address": " ", "location": {"lat": 32.015833, "lng": 34.787384}, "datetime": [{"key": 31, "date": " 23/02/2021", "time_start": "08:30", "time_end": "08:45"}, {"key": 5423, "date": " 11/02/2021", "time_start": "20:30", "time_end": "21:30"}, {"key": 6326, "date": " 11/02/2021", "time_start": "07:00", "time_end": "18:00"}, {"key": 7285, "date": " 10/02/2021", "time_start": "07:00", "time_end": "18:00"}]}, {"key": 33, "name": " אסותא", "city": " ראשון לציון", "address": "  13 ", "location": {"lat": 31.9918432, "lng": 34.7726765}, "datetime": [{"key": 33, "date": " 23/02/2021", "time_start": "08:20", "time_end": "09:00"}]}, {"key": 34, "name": " בית יעקב חדרה", "city": " חדרה", "address": " ", "location": {"lat": 32.4270977, "lng": 34.9203213}, "datetime": [{"key": 34, "date": " 23/02/2021", "time_start": "08:00", "time_end": "14:00"}, {"key": 441, "date": " 21/02/2021", "time_start": "08:00", "time_end": "14:00"}]}, {"key": 35, "name": " בניין שלד", "city": " נתניה", "address": " ", "location": {"lat": 32.278181, "lng": 34.85942000000001}, "datetime": [{"key": 35, "date": " 23/02/2021", "time_start": "08:00", "time_end": "15:00"}]}, {"key": 36, "name": " גן יערה", "city": " גני תקווה", "address": "  11 ", "location": {"lat": 32.060497, "lng": 34.873121}, "datetime": [{"key": 36, "date": " 23/02/2021", "time_start": "08:00", "time_end": "14:00"}, {"key": 1278, "date": " 18/02/2021", "time_start": "08:00", "time_end": "14:00"}, {"key": 1283, "date": " 18/02/2021", "time_start": "08:00", "time_end": "14:00"}, {"key": 1781, "date": " 17/02/2021", "time_start": "08:00", "time_end": "14:00"}, {"key": 2463, "date": " 16/02/2021", "time_start": "08:00", "time_end": "14:00"}]}, {"key": 37, "name": " גן סייפן", "city": " פרדס חנה-כרכור", "address": " ", "location": {"lat": 32.4791905, "lng": 34.9727195}, "datetime": [{"key": 37, "date": " 23/02/2021", "time_start": "08:00", "time_end": "11:00"}, {"key": 448, "date": " 21/02/2021", "time_start": "08:00", "time_end": "11:00"}]}, {"key": 38, "name": " גרין גם", "city": " ירושלים", "address": " ", "location": {"lat": 31.7486, "lng": 35.2135162}, "datetime": [{"key": 38, "date": " 23/02/2021", "time_start": "08:00", "time_end": "11:00"}, {"key": 174, "date": " 22/02/2021", "time_start": "08:00", "time_end": "11:00"}]}, {"key": 39, "name": " יסודי סאגור", "city": " סאג'ור", "address": " ", "location": {"lat": 32.9387663, "lng": 35.339636}, "datetime": [{"key": 39, "date": " 23/02/2021", "time_start": "08:00", "time_end": "10:00"}, {"key": 458, "date": " 21/02/2021", "time_start": "08:00", "time_end": "13:00"}]}, {"key": 40, "name": " מעון", "city": " באר שבע", "address": " זמורה משה 9-11 ", "location": {"lat": 31.252973, "lng": 34.791462}, "datetime": [{"key": 40, "date": " 23/02/2021", "time_start": "08:00", "time_end": "14:00"}, {"key": 181, "date": " 22/02/2021", "time_start": "08:00", "time_end": "16:00"}, {"key": 342, "date": " 21/02/2021", "time_start": "14:00", "time_end": "14:15"}, {"key": 461, "date": " 21/02/2021", "time_start": "08:00", "time_end": "16:00"}, {"key": 718, "date": " 19/02/2021", "time_start": "13:00", "time_end": "13:30"}, {"key": 1291, "date": " 18/02/2021", "time_start": "08:00", "time_end": "14:00"}, {"key": 2810, "date": " 15/02/2021", "time_start": "17:45", "time_end": "18:30"}, {"key": 4182, "date": " 14/02/2021", "time_start": "08:00", "time_end": "17:00"}, {"key": 4984, "date": " 12/02/2021", "time_start": "11:10", "time_end": "11:50"}, {"key": 7102, "date": " 10/02/2021", "time_start": "08:00", "time_end": "12:00"}]}, {"key": 42, "name": " גילרו", "city": " בית שמש", "address": " היצירה  ", "location": {"lat": 31.7317486, "lng": 34.9584035}, "datetime": [{"key": 42, "date": " 23/02/2021", "time_start": "07:00", "time_end": "18:00"}, {"key": 207, "date": " 22/02/2021", "time_start": "06:00", "time_end": "17:00"}, {"key": 212, "date": " 22/02/2021", "time_start": "00:00", "time_end": "00:00"}, {"key": 1390, "date": " 18/02/2021", "time_start": "06:00", "time_end": "15:30"}, {"key": 2636, "date": " 16/02/2021", "time_start": "06:00", "time_end": "18:30"}, {"key": 2641, "date": " 16/02/2021", "time_start": "06:00", "time_end": "17:30"}, {"key": 5650, "date": " 11/02/2021", "time_start": "16:00", "time_end": "23:59"}, {"key": 6417, "date": " 11/02/2021", "time_start": "00:00", "time_end": "00:00"}]}, {"key": 43, "name": " הכפריה של שוויק", "city": " עין החורש", "address": " ", "location": {"lat": 32.3840404, "lng": 34.9392036}, "datetime": [{"key": 43, "date": " 23/02/2021", "time_start": "06:30", "time_end": "14:00"}, {"key": 202, "date": " 22/02/2021", "time_start": "06:30", "time_end": "14:00"}, {"key": 498, "date": " 21/02/2021", "time_start": "06:30", "time_end": "14:00"}, {"key": 502, "date": " 21/02/2021", "time_start": "06:00", "time_end": "14:00"}, {"key": 518, "date": " 21/02/2021", "time_start": "00:00", "time_end": "00:00"}, {"key": 1293, "date": " 18/02/2021", "time_start": "08:00", "time_end": "12:00"}, {"key": 1379, "date": " 18/02/2021", "time_start": "06:30", "time_end": "14:00"}, {"key": 1385, "date": " 18/02/2021", "time_start": "06:00", "time_end": "14:00"}, {"key": 1791, "date": " 17/02/2021", "time_start": "08:00", "time_end": "12:00"}, {"key": 1792, "date": " 17/02/2021", "time_start": "08:00", "time_end": "14:00"}, {"key": 1901, "date": " 17/02/2021", "time_start": "06:31", "time_end": "14:30"}, {"key": 2478, "date": " 16/02/2021", "time_start": "08:00", "time_end": "12:00"}, {"key": 2621, "date": " 16/02/2021", "time_start": "06:30", "time_end": "14:00"}, {"key": 2631, "date": " 16/02/2021", "time_start": "06:00", "time_end": "08:00"}, {"key": 3253, "date": " 15/02/2021", "time_start": "08:00", "time_end": "12:00"}, {"key": 3421, "date": " 15/02/2021", "time_start": "06:30", "time_end": "14:00"}, {"key": 3435, "date": " 15/02/2021", "time_start": "06:00", "time_end": "08:00"}]}, {"key": 44, "name": " טיילת הליכה יומיומית", "city": " חיפה", "address": " ", "location": {"lat": 32.8089888, "lng": 34.9862248}, "datetime": [{"key": 44, "date": " 23/02/2021", "time_start": "06:30", "time_end": "10:00"}, {"key": 203, "date": " 22/02/2021", "time_start": "06:30", "time_end": "10:00"}, {"key": 499, "date": " 21/02/2021", "time_start": "06:30", "time_end": "10:00"}, {"key": 913, "date": " 19/02/2021", "time_start": "06:00", "time_end": "10:00"}]}, {"key": 45, "name": " אברהם שווק כרמיאל", "city": " כרמיאל", "address": " האופן 1 ", "location": {"lat": 32.9233333, "lng": 35.3091667}, "datetime": [{"key": 45, "date": " 23/02/2021", "time_start": "00:00", "time_end": "00:00"}]}, {"key": 46, "name": " בית חולים סן גוזף", "city": " ירושלים", "address": " ", "location": {"lat": 31.795767, "lng": 35.230404}, "datetime": [{"key": 46, "date": " 23/02/2021", "time_start": "00:00", "time_end": "14:30"}, {"key": 54, "date": " 22/02/2021", "time_start": "21:00", "time_end": "23:55"}]}, {"key": 47, "name": " מדרשת יעלה מצפה רמון", "city": " מצפה רמון", "address": " ", "location": {"lat": 30.6114462, "lng": 34.80032780000001}, "datetime": [{"key": 47, "date": " 23/02/2021", "time_start": "00:00", "time_end": "23:59"}, {"key": 217, "date": " 22/02/2021", "time_start": "00:00", "time_end": "23:59"}, {"key": 564, "date": " 20/02/2021", "time_start": "18:00", "time_end": "21:00"}, {"key": 673, "date": " 19/02/2021", "time_start": "18:00", "time_end": "21:00"}, {"key": 928, "date": " 19/02/2021", "time_start": "00:00", "time_end": "23:59"}, {"key": 1418, "date": " 18/02/2021", "time_start": "00:00", "time_end": "23:59"}, {"key": 1957, "date": " 17/02/2021", "time_start": "00:00", "time_end": "23:59"}, {"key": 2500, "date": " 16/02/2021", "time_start": "08:00", "time_end": "23:00"}, {"key": 2688, "date": " 16/02/2021", "time_start": "00:00", "time_end": "23:59"}, {"key": 3504, "date": " 15/02/2021", "time_start": "00:00", "time_end": "23:59"}]}, {"key": 48, "name": " מחלקת יולדות", "city": " פתח תקווה", "address": "  39 ", "location": {"lat": 32.0891567, "lng": 34.8668668}, "datetime": [{"key": 48, "date": " 23/02/2021", "time_start": "00:00", "time_end": "00:00"}, {"key": 137, "date": " 22/02/2021", "time_start": "10:30", "time_end": "12:00"}, {"key": 218, "date": " 22/02/2021", "time_start": "00:00", "time_end": "00:00"}, {"key": 2373, "date": " 16/02/2021", "time_start": "09:00", "time_end": "12:00"}, {"key": 3480, "date": " 15/02/2021", "time_start": "00:00", "time_end": "09:00"}, {"key": 3968, "date": " 14/02/2021", "time_start": "10:00", "time_end": "11:00"}, {"key": 4289, "date": " 14/02/2021", "time_start": "07:00", "time_end": "23:59"}]}, {"key": 49, "name": " מכינת אלישע  קדם צבאית", "city": " חלמיש", "address": " ", "location": {"lat": 32.008313, "lng": 35.128876}, "datetime": [{"key": 49, "date": " 23/02/2021", "time_start": "00:00", "time_end": "00:00"}, {"key": 221, "date": " 22/02/2021", "time_start": "00:00", "time_end": "00:00"}, {"key": 526, "date": " 21/02/2021", "time_start": "00:00", "time_end": "00:00"}, {"key": 649, "date": " 20/02/2021", "time_start": "06:00", "time_end": "18:00"}, {"key": 659, "date": " 20/02/2021", "time_start": "00:00", "time_end": "00:00"}, {"key": 694, "date": " 19/02/2021", "time_start": "15:00", "time_end": "23:00"}, {"key": 930, "date": " 19/02/2021", "time_start": "00:00", "time_end": "00:00"}, {"key": 1421, "date": " 18/02/2021", "time_start": "00:00", "time_end": "00:00"}]}, {"key": 50, "name": " מפעל רב בריח", "city": " אשקלון", "address": " האופה 31 ", "location": {"lat": 31.6368019, "lng": 34.5559382}, "datetime": [{"key": 50, "date": " 23/02/2021", "time_start": "00:00", "time_end": "07:00"}, {"key": 66, "date": " 22/02/2021", "time_start": "19:00", "time_end": "23:58"}, {"key": 223, "date": " 22/02/2021", "time_start": "00:00", "time_end": "07:00"}, {"key": 250, "date": " 21/02/2021", "time_start": "19:00", "time_end": "23:58"}]}, {"key": 51, "name": " נתבג", "city": " תל אביב - יפו", "address": " ", "location": {"lat": 32.005532, "lng": 34.8854112}, "datetime": [{"key": 51, "date": " 23/02/2021", "time_start": "00:00", "time_end": "00:00"}, {"key": 5103, "date": " 12/02/2021", "time_start": "10:00", "time_end": "11:00"}]}, {"key": 52, "name": " שערי צדק", "city": " ירושלים", "address": "  5 ", "location": {"lat": 31.7860222, "lng": 35.2092403}, "datetime": [{"key": 52, "date": " 23/02/2021", "time_start": "00:00", "time_end": "13:00"}, {"key": 103, "date": " 22/02/2021", "time_start": "14:00", "time_end": "17:00"}, {"key": 224, "date": " 22/02/2021", "time_start": "00:00", "time_end": "09:00"}, {"key": 227, "date": " 21/02/2021", "time_start": "22:00", "time_end": "23:59"}, {"key": 3072, "date": " 15/02/2021", "time_start": "11:00", "time_end": "13:00"}]}, {"key": 53, "name": " שוק לוינסקי", "city": " תל אביב - יפו", "address": " לוינסקי  ", "location": {"lat": 32.0594379, "lng": 34.7728971}, "datetime": [{"key": 53, "date": " 22/02/2021", "time_start": "21:10", "time_end": "23:00"}]}, {"key": 55, "name": " יומנגס", "city": " כפר סבא", "address": " עתירי ידע 1 ", "location": {"lat": 32.167599, "lng": 34.928853}, "datetime": [{"key": 55, "date": " 22/02/2021", "time_start": "20:00", "time_end": "20:09"}]}, {"key": 56, "name": " מרמ", "city": " חדרה", "address": "  7 ", "location": {"lat": 32.4418197, "lng": 34.9130742}, "datetime": [{"key": 56, "date": " 22/02/2021", "time_start": "20:00", "time_end": "21:00"}, {"key": 1643, "date": " 17/02/2021", "time_start": "11:30", "time_end": "12:30"}, {"key": 5948, "date": " 11/02/2021", "time_start": "10:00", "time_end": "10:40"}]}, {"key": 57, "name": " שפע טוב", "city": " בני ברק", "address": " יצחק נפחא 3 ", "location": {"lat": 32.0903709, "lng": 34.837628}, "datetime": [{"key": 57, "date": " 22/02/2021", "time_start": "19:45", "time_end": "20:00"}]}, {"key": 58, "name": " אורבניקה", "city": " חיפה", "address": " ", "location": {"lat": 32.7894933, "lng": 34.9636889}, "datetime": [{"key": 58, "date": " 22/02/2021", "time_start": "19:30", "time_end": "20:30"}]}, {"key": 59, "name": " אושר עד קניון הדר", "city": " ירושלים", "address": "  26 ", "location": {"lat": 31.7534878, "lng": 35.2130043}, "datetime": [{"key": 59, "date": " 22/02/2021", "time_start": "19:30", "time_end": "20:00"}, {"key": 965, "date": " 18/02/2021", "time_start": "19:00", "time_end": "20:00"}, {"key": 1513, "date": " 17/02/2021", "time_start": "16:00", "time_end": "18:00"}, {"key": 2161, "date": " 16/02/2021", "time_start": "14:30", "time_end": "15:00"}, {"key": 2940, "date": " 15/02/2021", "time_start": "14:00", "time_end": "16:00"}]}, {"key": 60, "name": " חנות בום", "city": " רמלה", "address": " שד הרצל 91 ", "location": {"lat": 31.9263076, "lng": 34.8762943}, "datetime": [{"key": 60, "date": " 22/02/2021", "time_start": "19:30", "time_end": "20:00"}, {"key": 3053, "date": " 15/02/2021", "time_start": "11:00", "time_end": "11:20"}]}, {"key": 61, "name": " כשר פון", "city": " בני ברק", "address": "  12 ", "location": {"lat": 32.0906751, "lng": 34.8388344}, "datetime": [{"key": 61, "date": " 22/02/2021", "time_start": "19:30", "time_end": "20:00"}]}, {"key": 62, "name": " הפיראט האדום צמח", "city": " טבריה", "address": " ", "location": {"lat": 32.7035249, "lng": 35.5846968}, "datetime": [{"key": 62, "date": " 22/02/2021", "time_start": "19:00", "time_end": "19:20"}, {"key": 4613, "date": " 13/02/2021", "time_start": "12:00", "time_end": "12:15"}]}, {"key": 63, "name": " חנות ביגוד ביהוד", "city": " יהוד", "address": " ", "location": {"lat": 32.0264398, "lng": 34.8988495}, "datetime": [{"key": 63, "date": " 22/02/2021", "time_start": "19:00", "time_end": "19:30"}, {"key": 3593, "date": " 14/02/2021", "time_start": "18:00", "time_end": "19:00"}]}, {"key": 64, "name": " חנות מדפסות קולרס בקוסמוס ברמל", "city": " רמלה", "address": " צופית  ", "location": {"lat": 31.9327498, "lng": 34.8893341}, "datetime": [{"key": 64, "date": " 22/02/2021", "time_start": "19:00", "time_end": "19:10"}]}, {"key": 65, "name": " כפר הנופש אשקלון", "city": " אשקלון", "address": " ", "location": {"lat": 31.6705514, "lng": 34.5507587}, "datetime": [{"key": 65, "date": " 22/02/2021", "time_start": "19:00", "time_end": "08:00"}]}, {"key": 67, "name": " כללית סמייל", "city": " אשדוד", "address": " שבט לוי 14 ", "location": {"lat": 31.7775195, "lng": 34.6367516}, "datetime": [{"key": 67, "date": " 22/02/2021", "time_start": "18:40", "time_end": "19:05"}]}, {"key": 68, "name": " מאוחדת", "city": " לוד", "address": " ", "location": {"lat": 31.94809589999999, "lng": 34.8927652}, "datetime": [{"key": 68, "date": " 22/02/2021", "time_start": "18:04", "time_end": "18:40"}]}, {"key": 69, "name": " אולפן ביאליק", "city": " נתניה", "address": " ביאליק  ", "location": {"lat": 32.3376662, "lng": 34.8551379}, "datetime": [{"key": 69, "date": " 22/02/2021", "time_start": "18:00", "time_end": "21:00"}]}, {"key": 70, "name": " אושר עד", "city": " באר שבע", "address": " הקוצר 15 ", "location": {"lat": 31.2133285, "lng": 34.8110105}, "datetime": [{"key": 70, "date": " 22/02/2021", "time_start": "18:00", "time_end": "20:00"}, {"key": 988, "date": " 18/02/2021", "time_start": "18:00", "time_end": "18:30"}, {"key": 996, "date": " 18/02/2021", "time_start": "18:00", "time_end": "20:00"}, {"key": 2008, "date": " 16/02/2021", "time_start": "19:30", "time_end": "21:00"}, {"key": 2795, "date": " 15/02/2021", "time_start": "18:00", "time_end": "20:00"}]}, {"key": 71, "name": " יינות ביתן", "city": " בית שמש", "address": " ", "location": {"lat": 31.7559865, "lng": 34.9908597}, "datetime": [{"key": 71, "date": " 22/02/2021", "time_start": "18:00", "time_end": "19:00"}, {"key": 4488, "date": " 13/02/2021", "time_start": "19:00", "time_end": "19:40"}, {"key": 6210, "date": " 11/02/2021", "time_start": "08:00", "time_end": "23:59"}]}, {"key": 72, "name": " קניון מלחה", "city": " ירושלים", "address": " האייל 16 ", "location": {"lat": 31.7537756, "lng": 35.1853208}, "datetime": [{"key": 72, "date": " 22/02/2021", "time_start": "18:00", "time_end": "19:00"}, {"key": 853, "date": " 19/02/2021", "time_start": "08:30", "time_end": "11:30"}]}, {"key": 73, "name": " גרנד קניון", "city": " באר שבע", "address": "  125 ", "location": {"lat": 31.2503705, "lng": 34.7717336}, "datetime": [{"key": 73, "date": " 22/02/2021", "time_start": "17:45", "time_end": "19:30"}, {"key": 1036, "date": " 18/02/2021", "time_start": "16:25", "time_end": "16:30"}, {"key": 2311, "date": " 16/02/2021", "time_start": "10:30", "time_end": "11:00"}, {"key": 3811, "date": " 14/02/2021", "time_start": "13:15", "time_end": "15:00"}]}, {"key": 74, "name": " כללית משלימה", "city": " תל אביב - יפו", "address": " בארי 27 ", "location": {"lat": 32.0830752, "lng": 34.7884746}, "datetime": [{"key": 74, "date": " 22/02/2021", "time_start": "17:15", "time_end": "18:00"}]}, {"key": 75, "name": " מאוחדת סיטי אשדוד", "city": " אשדוד", "address": " קרן היסוד 8 ", "location": {"lat": 31.7997879, "lng": 34.6422818}, "datetime": [{"key": 75, "date": " 22/02/2021", "time_start": "17:00", "time_end": "17:30"}]}, {"key": 76, "name": " שופרסל", "city": " ירושלים", "address": " האומן 17 ", "location": {"lat": 31.7510822, "lng": 35.2084084}, "datetime": [{"key": 76, "date": " 22/02/2021", "time_start": "17:00", "time_end": "18:00"}, {"key": 1002, "date": " 18/02/2021", "time_start": "18:00", "time_end": "19:00"}]}, {"key": 77, "name": " שיש ירח שוהם 6 ברקן", "city": " ברקן", "address": " ", "location": {"lat": 31.9957581, "lng": 34.9488403}, "datetime": [{"key": 77, "date": " 22/02/2021", "time_start": "17:00", "time_end": "18:00"}, {"key": 300, "date": " 21/02/2021", "time_start": "16:30", "time_end": "17:30"}]}, {"key": 78, "name": " פיראט האדום", "city": " גבעתיים", "address": " תפוצות ישראל 6 ", "location": {"lat": 32.060441, "lng": 34.8153207}, "datetime": [{"key": 78, "date": " 22/02/2021", "time_start": "16:50", "time_end": "17:30"}]}, {"key": 79, "name": " ace", "city": " ירושלים", "address": " האומן 17 ", "location": {"lat": 31.7506639, "lng": 35.2085773}, "datetime": [{"key": 79, "date": " 22/02/2021", "time_start": "16:30", "time_end": "17:00"}]}, {"key": 80, "name": " ביג קרית גת", "city": " קרית גת", "address": " דרך הדרום 3 ", "location": {"lat": 31.6031047, "lng": 34.77151560000001}, "datetime": [{"key": 80, "date": " 22/02/2021", "time_start": "16:30", "time_end": "17:30"}]}, {"key": 81, "name": " קופת חולים כללית מרפאת ארמון", "city": " חיפה", "address": " הנביאים 18 ", "location": {"lat": 32.8135222, "lng": 34.9957064}, "datetime": [{"key": 81, "date": " 22/02/2021", "time_start": "16:20", "time_end": "16:50"}]}, {"key": 82, "name": " fit step pro", "city": " רעננה", "address": " המלאכה 2 ", "location": {"lat": 32.1974322, "lng": 34.8782996}, "datetime": [{"key": 82, "date": " 22/02/2021", "time_start": "16:00", "time_end": "21:00"}, {"key": 5033, "date": " 12/02/2021", "time_start": "11:00", "time_end": "11:30"}, {"key": 6489, "date": " 10/02/2021", "time_start": "20:00", "time_end": "20:15"}]}, {"key": 83, "name": " בטרם", "city": " אשקלון", "address": " הפלמ''ח 3 ", "location": {"lat": 31.6633566, "lng": 34.5858855}, "datetime": [{"key": 83, "date": " 22/02/2021", "time_start": "16:00", "time_end": "17:00"}, {"key": 682, "date": " 19/02/2021", "time_start": "17:00", "time_end": "18:00"}, {"key": 3084, "date": " 15/02/2021", "time_start": "10:30", "time_end": "11:00"}]}, {"key": 84, "name": " ביוטי קאר", "city": " ראשון לציון", "address": " סחרוב דוד 21 ", "location": {"lat": 31.9917493, "lng": 34.7700798}, "datetime": [{"key": 84, "date": " 22/02/2021", "time_start": "16:00", "time_end": "22:00"}]}, {"key": 85, "name": " בית ספר רבין", "city": " אילת", "address": " ", "location": {"lat": 29.5537427, "lng": 34.9364394}, "datetime": [{"key": 85, "date": " 22/02/2021", "time_start": "16:00", "time_end": "16:30"}, {"key": 88, "date": " 22/02/2021", "time_start": "16:00", "time_end": "16:30"}, {"key": 254, "date": " 21/02/2021", "time_start": "19:00", "time_end": "19:25"}, {"key": 255, "date": " 21/02/2021", "time_start": "19:00", "time_end": "19:30"}, {"key": 333, "date": " 21/02/2021", "time_start": "15:00", "time_end": "15:30"}, {"key": 540, "date": " 20/02/2021", "time_start": "20:00", "time_end": "20:30"}, {"key": 550, "date": " 20/02/2021", "time_start": "19:10", "time_end": "19:30"}, {"key": 572, "date": " 20/02/2021", "time_start": "17:00", "time_end": "17:30"}, {"key": 583, "date": " 20/02/2021", "time_start": "15:00", "time_end": "15:30"}, {"key": 1029, "date": " 18/02/2021", "time_start": "17:00", "time_end": "17:20"}, {"key": 1461, "date": " 17/02/2021", "time_start": "18:10", "time_end": "18:30"}, {"key": 1546, "date": " 17/02/2021", "time_start": "15:20", "time_end": "15:40"}, {"key": 1590, "date": " 17/02/2021", "time_start": "14:00", "time_end": "14:45"}, {"key": 2115, "date": " 16/02/2021", "time_start": "16:00", "time_end": "16:35"}, {"key": 2152, "date": " 16/02/2021", "time_start": "15:00", "time_end": "15:39"}, {"key": 2743, "date": " 15/02/2021", "time_start": "20:00", "time_end": "20:30"}, {"key": 2756, "date": " 15/02/2021", "time_start": "19:00", "time_end": "19:30"}, {"key": 2849, "date": " 15/02/2021", "time_start": "17:00", "time_end": "17:20"}, {"key": 3644, "date": " 14/02/2021", "time_start": "17:00", "time_end": "17:30"}, {"key": 4453, "date": " 13/02/2021", "time_start": "21:00", "time_end": "21:31"}, {"key": 5560, "date": " 11/02/2021", "time_start": "17:30", "time_end": "17:40"}, {"key": 6617, "date": " 10/02/2021", "time_start": "17:00", "time_end": "17:25"}]}, {"key": 86, "name": " ברזילי", "city": " אשקלון", "address": " ", "location": {"lat": 31.6622785, "lng": 34.5592871}, "datetime": [{"key": 86, "date": " 22/02/2021", "time_start": "16:00", "time_end": "21:00"}, {"key": 99, "date": " 22/02/2021", "time_start": "14:00", "time_end": "23:59"}, {"key": 1872, "date": " 17/02/2021", "time_start": "07:00", "time_end": "18:00"}, {"key": 1928, "date": " 17/02/2021", "time_start": "01:00", "time_end": "02:00"}]}, {"key": 87, "name": " פוקס גן יבנה", "city": " גן יבנה", "address": "  56 ", "location": {"lat": 31.7953112, "lng": 34.7045529}, "datetime": [{"key": 87, "date": " 22/02/2021", "time_start": "16:00", "time_end": "16:30"}]}, {"key": 89, "name": " שוק רמלה", "city": " רמלה", "address": " ", "location": {"lat": 31.92532989999999, "lng": 34.8742074}, "datetime": [{"key": 89, "date": " 22/02/2021", "time_start": "16:00", "time_end": "17:00"}, {"key": 141, "date": " 22/02/2021", "time_start": "10:30", "time_end": "11:00"}, {"key": 1664, "date": " 17/02/2021", "time_start": "11:00", "time_end": "11:30"}, {"key": 2404, "date": " 16/02/2021", "time_start": "09:00", "time_end": "11:00"}, {"key": 4961, "date": " 12/02/2021", "time_start": "12:00", "time_end": "14:00"}, {"key": 5057, "date": " 12/02/2021", "time_start": "10:30", "time_end": "11:00"}, {"key": 5264, "date": " 12/02/2021", "time_start": "08:00", "time_end": "10:00"}, {"key": 5826, "date": " 11/02/2021", "time_start": "12:30", "time_end": "14:00"}, {"key": 7196, "date": " 10/02/2021", "time_start": "08:00", "time_end": "10:00"}]}, {"key": 90, "name": " אייסמול אילת", "city": " אילת", "address": " קאמפן 8 ", "location": {"lat": 29.554109, "lng": 34.965603}, "datetime": [{"key": 90, "date": " 22/02/2021", "time_start": "15:00", "time_end": "16:00"}, {"key": 347, "date": " 21/02/2021", "time_start": "13:30", "time_end": "16:00"}]}, {"key": 91, "name": " איצטדיון המושבה", "city": " פתח תקווה", "address": "  12 ", "location": {"lat": 32.1043211, "lng": 34.8652566}, "datetime": [{"key": 91, "date": " 22/02/2021", "time_start": "15:00", "time_end": "15:30"}, {"key": 607, "date": " 20/02/2021", "time_start": "11:00", "time_end": "11:30"}, {"key": 3964, "date": " 14/02/2021", "time_start": "10:00", "time_end": "11:00"}]}, {"key": 92, "name": " ביקור חולים", "city": " ירושלים", "address": " הנביאים 51 ", "location": {"lat": 31.7841281, "lng": 35.2183672}, "datetime": [{"key": 92, "date": " 22/02/2021", "time_start": "15:00", "time_end": "23:00"}, {"key": 488, "date": " 21/02/2021", "time_start": "07:00", "time_end": "15:00"}, {"key": 919, "date": " 19/02/2021", "time_start": "00:00", "time_end": "00:00"}, {"key": 1867, "date": " 17/02/2021", "time_start": "07:00", "time_end": "15:00"}, {"key": 2580, "date": " 16/02/2021", "time_start": "07:00", "time_end": "15:00"}, {"key": 2904, "date": " 15/02/2021", "time_start": "15:00", "time_end": "23:00"}]}, {"key": 93, "name": " יש בשכונה", "city": " ירושלים", "address": " פארן 7 ", "location": {"lat": 31.7861401, "lng": 35.1737005}, "datetime": [{"key": 93, "date": " 22/02/2021", "time_start": "15:00", "time_end": "15:20"}, {"key": 5640, "date": " 11/02/2021", "time_start": "16:00", "time_end": "17:00"}, {"key": 5696, "date": " 11/02/2021", "time_start": "15:00", "time_end": "17:00"}]}, {"key": 94, "name": " מאוחדת עשה בדיקת קורונה", "city": " נתיבות", "address": " חיל אוויר 82 ", "location": {"lat": 31.4273575, "lng": 34.5811154}, "datetime": [{"key": 94, "date": " 22/02/2021", "time_start": "15:00", "time_end": "15:15"}]}, {"key": 96, "name": " סופר יוחננוף קניון פרנדלי", "city": " גן יבנה", "address": "  56 ", "location": {"lat": 31.7952094, "lng": 34.7046109}, "datetime": [{"key": 96, "date": " 22/02/2021", "time_start": "15:00", "time_end": "16:00"}, {"key": 1565, "date": " 17/02/2021", "time_start": "15:00", "time_end": "16:00"}, {"key": 5533, "date": " 11/02/2021", "time_start": "18:00", "time_end": "19:00"}]}, {"key": 98, "name": " ביג שופ חנות בגדים חוצות המפרץ", "city": " חיפה", "address": " ", "location": {"lat": 32.8079836, "lng": 35.0565288}, "datetime": [{"key": 98, "date": " 22/02/2021", "time_start": "14:00", "time_end": "15:00"}, {"key": 809, "date": " 19/02/2021", "time_start": "09:30", "time_end": "12:00"}]}, {"key": 100, "name": " לא ידוע", "city": " ראש העין", "address": "  24 ", "location": {"lat": 32.095838, "lng": 34.952177}, "datetime": [{"key": 100, "date": " 22/02/2021", "time_start": "14:00", "time_end": "14:30"}]}, {"key": 101, "name": " סופר פארם שדרות", "city": " שדרות", "address": "  1 ", "location": {"lat": 31.5212537, "lng": 34.5951427}, "datetime": [{"key": 101, "date": " 22/02/2021", "time_start": "14:00", "time_end": "14:30"}, {"key": 5456, "date": " 11/02/2021", "time_start": "19:30", "time_end": "19:45"}]}, {"key": 102, "name": " קופת חולים כללית", "city": " באר שבע", "address": " מבצע עובדה  ", "location": {"lat": 31.2592647, "lng": 34.7792722}, "datetime": [{"key": 102, "date": " 22/02/2021", "time_start": "14:00", "time_end": "14:20"}]}, {"key": 104, "name": " גן לי אור", "city": " ראשון לציון", "address": "  19 ", "location": {"lat": 31.9905343, "lng": 34.7721903}, "datetime": [{"key": 104, "date": " 22/02/2021", "time_start": "13:45", "time_end": "16:30"}, {"key": 345, "date": " 21/02/2021", "time_start": "13:45", "time_end": "16:30"}]}, {"key": 105, "name": " ", "city": " נווה ימין", "address": " הברוש 58 ", "location": {"lat": 32.1720396, "lng": 34.9448511}, "datetime": [{"key": 105, "date": " 22/02/2021", "time_start": "13:30", "time_end": "08:00"}, {"key": 296, "date": " 21/02/2021", "time_start": "16:30", "time_end": "13:00"}, {"key": 1030, "date": " 18/02/2021", "time_start": "16:30", "time_end": "08:00"}, {"key": 1505, "date": " 17/02/2021", "time_start": "16:30", "time_end": "08:00"}, {"key": 1930, "date": " 17/02/2021", "time_start": "00:00", "time_end": "08:00"}]}, {"key": 106, "name": " היכל התרבות אשקלון", "city": " אשקלון", "address": " הנשיא 82 ", "location": {"lat": 31.6647674, "lng": 34.56202150000001}, "datetime": [{"key": 106, "date": " 22/02/2021", "time_start": "13:10", "time_end": "13:15"}, {"key": 777, "date": " 19/02/2021", "time_start": "10:55", "time_end": "11:30"}, {"key": 1593, "date": " 17/02/2021", "time_start": "13:30", "time_end": "14:45"}, {"key": 2086, "date": " 16/02/2021", "time_start": "16:30", "time_end": "17:00"}]}, {"key": 107, "name": " היכל התרבות דרום השרון", "city": " נווה ירק", "address": " ", "location": {"lat": 32.132994, "lng": 34.9112375}, "datetime": [{"key": 107, "date": " 22/02/2021", "time_start": "13:00", "time_end": "13:30"}]}, {"key": 108, "name": " מחסני השוק", "city": " אילת", "address": " הספן 1 ", "location": {"lat": 29.5713176, "lng": 34.9587402}, "datetime": [{"key": 108, "date": " 22/02/2021", "time_start": "13:00", "time_end": "14:00"}, {"key": 1583, "date": " 17/02/2021", "time_start": "14:00", "time_end": "15:30"}, {"key": 3955, "date": " 14/02/2021", "time_start": "10:30", "time_end": "16:00"}]}, {"key": 109, "name": " מכבי", "city": " רמת גן", "address": " אורה 4 ", "location": {"lat": 32.0801724, "lng": 34.8154191}, "datetime": [{"key": 109, "date": " 22/02/2021", "time_start": "13:00", "time_end": "13:45"}]}, {"key": 110, "name": " צהרון אפטר סקול", "city": " נס ציונה", "address": " השריון 7 ", "location": {"lat": 32.1373981, "lng": 34.8450494}, "datetime": [{"key": 110, "date": " 22/02/2021", "time_start": "13:00", "time_end": "16:15"}]}, {"key": 111, "name": " מספרת רפאל", "city": " תל אביב - יפו", "address": " שיינקין 55 ", "location": {"lat": 32.0684854, "lng": 34.7769298}, "datetime": [{"key": 111, "date": " 22/02/2021", "time_start": "12:30", "time_end": "12:45"}]}, {"key": 112, "name": " מרכולית אגמים", "city": " נתניה", "address": "  8 ", "location": {"lat": 32.290245, "lng": 34.8509992}, "datetime": [{"key": 112, "date": " 22/02/2021", "time_start": "12:30", "time_end": "12:45"}]}, {"key": 113, "name": " מתחם לבדיקת קורונה", "city": " באר שבע", "address": " אברהם אבינו 97 ", "location": {"lat": 31.270199, "lng": 34.7962798}, "datetime": [{"key": 113, "date": " 22/02/2021", "time_start": "12:30", "time_end": "12:50"}]}, {"key": 114, "name": " מתחם לבדיקת קורונה", "city": " באר שבע", "address": " סמילנסקי 79 ", "location": {"lat": 31.2401733, "lng": 34.783548}, "datetime": [{"key": 114, "date": " 22/02/2021", "time_start": "12:30", "time_end": "13:30"}]}, {"key": 115, "name": " קניון השרון", "city": " נתניה", "address": " הרצל 65 ", "location": {"lat": 32.3268688, "lng": 34.8622456}, "datetime": [{"key": 115, "date": " 22/02/2021", "time_start": "12:30", "time_end": "15:00"}, {"key": 963, "date": " 18/02/2021", "time_start": "19:45", "time_end": "20:30"}, {"key": 3068, "date": " 15/02/2021", "time_start": "11:00", "time_end": "11:30"}]}, {"key": 116, "name": " סופר פארם", "city": " נתניה", "address": "  6 ", "location": {"lat": 32.2767206, "lng": 34.8615163}, "datetime": [{"key": 116, "date": " 22/02/2021", "time_start": "12:15", "time_end": "12:30"}, {"key": 580, "date": " 20/02/2021", "time_start": "16:00", "time_end": "16:15"}]}, {"key": 117, "name": " חנות ביגוד", "city": " חדרה", "address": " ", "location": {"lat": 32.4415939, "lng": 34.8955758}, "datetime": [{"key": 117, "date": " 22/02/2021", "time_start": "12:00", "time_end": "13:00"}]}, {"key": 118, "name": " מחסני להב", "city": " נתניה", "address": " הרצל 60 ", "location": {"lat": 32.3261415, "lng": 34.8618756}, "datetime": [{"key": 118, "date": " 22/02/2021", "time_start": "12:00", "time_end": "14:00"}, {"key": 2073, "date": " 16/02/2021", "time_start": "17:00", "time_end": "18:00"}, {"key": 2242, "date": " 16/02/2021", "time_start": "12:30", "time_end": "13:30"}, {"key": 2262, "date": " 16/02/2021", "time_start": "12:00", "time_end": "13:00"}, {"key": 5527, "date": " 11/02/2021", "time_start": "18:00", "time_end": "18:30"}, {"key": 5528, "date": " 11/02/2021", "time_start": "18:00", "time_end": "18:45"}]}, {"key": 119, "name": " מיי בייבי", "city": " ירכא", "address": " ", "location": {"lat": 32.9467363, "lng": 35.1726051}, "datetime": [{"key": 119, "date": " 22/02/2021", "time_start": "12:00", "time_end": "14:00"}]}, {"key": 120, "name": " מקומות ציבוריים נוספים חנויות", "city": " באר שבע", "address": " שדרת חיל הנדסה  ", "location": {"lat": 31.24475139999999, "lng": 34.8125997}, "datetime": [{"key": 120, "date": " 22/02/2021", "time_start": "12:00", "time_end": "13:00"}]}, {"key": 121, "name": " מתחם לבדיקת קורונה", "city": " אופקים", "address": " שד הרצל 36 ", "location": {"lat": 31.3156018, "lng": 34.6206779}, "datetime": [{"key": 121, "date": " 22/02/2021", "time_start": "12:00", "time_end": "12:30"}, {"key": 404, "date": " 21/02/2021", "time_start": "10:00", "time_end": "11:00"}, {"key": 3308, "date": " 15/02/2021", "time_start": "08:00", "time_end": "19:00"}, {"key": 4224, "date": " 14/02/2021", "time_start": "08:00", "time_end": "19:00"}, {"key": 5253, "date": " 12/02/2021", "time_start": "08:00", "time_end": "11:30"}, {"key": 6627, "date": " 10/02/2021", "time_start": "16:45", "time_end": "17:00"}, {"key": 6683, "date": " 10/02/2021", "time_start": "15:40", "time_end": "16:00"}, {"key": 6840, "date": " 10/02/2021", "time_start": "12:20", "time_end": "12:20"}]}, {"key": 122, "name": " מתחם לבדיקת קורונה", "city": " תל שבע", "address": " ", "location": {"lat": 31.247569, "lng": 34.861193}, "datetime": [{"key": 122, "date": " 22/02/2021", "time_start": "12:00", "time_end": "12:30"}, {"key": 7371, "date": " 10/02/2021", "time_start": "00:00", "time_end": "00:00"}]}, {"key": 123, "name": " רמי לוי", "city": " ירושלים", "address": " כנפי נשרים  ", "location": {"lat": 31.7882871, "lng": 35.1850293}, "datetime": [{"key": 123, "date": " 22/02/2021", "time_start": "12:00", "time_end": "14:00"}, {"key": 974, "date": " 18/02/2021", "time_start": "19:00", "time_end": "20:00"}, {"key": 2205, "date": " 16/02/2021", "time_start": "13:30", "time_end": "14:30"}, {"key": 2425, "date": " 16/02/2021", "time_start": "08:30", "time_end": "09:30"}, {"key": 5866, "date": " 11/02/2021", "time_start": "12:00", "time_end": "13:00"}, {"key": 6032, "date": " 11/02/2021", "time_start": "09:00", "time_end": "10:00"}]}, {"key": 124, "name": " רמי לוי בקניון לוד", "city": " לוד", "address": " שד הציונות 1 ", "location": {"lat": 31.9454999, "lng": 34.8920591}, "datetime": [{"key": 124, "date": " 22/02/2021", "time_start": "12:00", "time_end": "13:30"}, {"key": 4328, "date": " 14/02/2021", "time_start": "07:00", "time_end": "15:00"}, {"key": 6330, "date": " 11/02/2021", "time_start": "07:00", "time_end": "09:00"}, {"key": 7288, "date": " 10/02/2021", "time_start": "07:00", "time_end": "15:00"}]}, {"key": 125, "name": " בית מרקחת מכבי", "city": " אילת", "address": " אילות 17 ", "location": {"lat": 29.5600474, "lng": 34.9514194}, "datetime": [{"key": 125, "date": " 22/02/2021", "time_start": "11:30", "time_end": "11:40"}, {"key": 2878, "date": " 15/02/2021", "time_start": "16:00", "time_end": "19:00"}]}, {"key": 127, "name": " סלון את", "city": " רחובות", "address": " ביל''ו 2 ", "location": {"lat": 31.8935603, "lng": 34.8075367}, "datetime": [{"key": 127, "date": " 22/02/2021", "time_start": "11:30", "time_end": "12:30"}]}, {"key": 128, "name": " קופת חולים מכבי", "city": " אשדוד", "address": "  20 ", "location": {"lat": 31.7995337, "lng": 34.6411493}, "datetime": [{"key": 128, "date": " 22/02/2021", "time_start": "11:30", "time_end": "11:35"}, {"key": 1473, "date": " 17/02/2021", "time_start": "18:00", "time_end": "19:00"}]}, {"key": 129, "name": " גוזלן לוריא ושות רואי חשבון", "city": " תל אביב - יפו", "address": " גולדברג 1 ", "location": {"lat": 32.0642178, "lng": 34.7782874}, "datetime": [{"key": 129, "date": " 22/02/2021", "time_start": "11:00", "time_end": "16:00"}, {"key": 379, "date": " 21/02/2021", "time_start": "11:00", "time_end": "16:00"}, {"key": 1156, "date": " 18/02/2021", "time_start": "11:00", "time_end": "16:00"}, {"key": 1650, "date": " 17/02/2021", "time_start": "11:00", "time_end": "16:00"}]}, {"key": 130, "name": " גמבו סטוק", "city": " חדרה", "address": "  10 ", "location": {"lat": 32.442081, "lng": 34.8959343}, "datetime": [{"key": 130, "date": " 22/02/2021", "time_start": "11:00", "time_end": "11:30"}]}, {"key": 131, "name": " כללית", "city": " כפר סבא", "address": " בן גוריון 43 ", "location": {"lat": 32.172369, "lng": 34.9089399}, "datetime": [{"key": 131, "date": " 22/02/2021", "time_start": "11:00", "time_end": "11:30"}]}, {"key": 132, "name": " מוסד רפואי קופת חולים", "city": " תל אביב - יפו", "address": " אלון יגאל 96 ", "location": {"lat": 32.069392, "lng": 34.7943004}, "datetime": [{"key": 132, "date": " 22/02/2021", "time_start": "11:00", "time_end": "11:30"}]}, {"key": 133, "name": " מתחם לבדיקת קורונה", "city": " באר שבע", "address": " מקלף מרדכי 62 ", "location": {"lat": 31.2680213, "lng": 34.7747806}, "datetime": [{"key": 133, "date": " 22/02/2021", "time_start": "11:00", "time_end": "11:45"}, {"key": 1692, "date": " 17/02/2021", "time_start": "10:00", "time_end": "10:15"}, {"key": 6563, "date": " 10/02/2021", "time_start": "18:00", "time_end": "19:00"}]}, {"key": 134, "name": " סופר בול", "city": " ראש העין", "address": " ", "location": {"lat": 32.0960473, "lng": 34.94652}, "datetime": [{"key": 134, "date": " 22/02/2021", "time_start": "11:00", "time_end": "11:10"}]}, {"key": 135, "name": " סופר פארם", "city": " תל אביב - יפו", "address": "  124 ", "location": {"lat": 32.075436, "lng": 34.775457}, "datetime": [{"key": 135, "date": " 22/02/2021", "time_start": "11:00", "time_end": "11:20"}, {"key": 2959, "date": " 15/02/2021", "time_start": "14:00", "time_end": "14:30"}]}, {"key": 136, "name": " בית כנסת לוי יצחק", "city": " צפת", "address": "  1 ", "location": {"lat": 32.964404, "lng": 35.504986}, "datetime": [{"key": 136, "date": " 22/02/2021", "time_start": "10:30", "time_end": "12:30"}, {"key": 387, "date": " 21/02/2021", "time_start": "10:30", "time_end": "12:30"}, {"key": 612, "date": " 20/02/2021", "time_start": "10:30", "time_end": "12:30"}, {"key": 780, "date": " 19/02/2021", "time_start": "10:30", "time_end": "12:30"}, {"key": 1171, "date": " 18/02/2021", "time_start": "10:31", "time_end": "12:30"}]}, {"key": 138, "name": " מתחם של בדיקת קורונה", "city": " רמלה", "address": " הלל אברהם  ", "location": {"lat": 31.9291769, "lng": 34.8605968}, "datetime": [{"key": 138, "date": " 22/02/2021", "time_start": "10:30", "time_end": "11:30"}]}, {"key": 139, "name": " סופר פארם", "city": " אשקלון", "address": "  21 ", "location": {"lat": 31.6641306, "lng": 34.5656529}, "datetime": [{"key": 139, "date": " 22/02/2021", "time_start": "10:30", "time_end": "11:31"}, {"key": 719, "date": " 19/02/2021", "time_start": "13:00", "time_end": "13:15"}, {"key": 2005, "date": " 16/02/2021", "time_start": "20:00", "time_end": "20:45"}, {"key": 4033, "date": " 14/02/2021", "time_start": "09:05", "time_end": "09:30"}, {"key": 5060, "date": " 12/02/2021", "time_start": "10:20", "time_end": "13:00"}]}, {"key": 140, "name": " עמי לוי בת ים", "city": " בת ים", "address": " העמל 20 ", "location": {"lat": 32.0045095, "lng": 34.7475226}, "datetime": [{"key": 140, "date": " 22/02/2021", "time_start": "10:30", "time_end": "14:00"}, {"key": 3708, "date": " 14/02/2021", "time_start": "15:30", "time_end": "17:30"}, {"key": 3792, "date": " 14/02/2021", "time_start": "14:00", "time_end": "14:20"}, {"key": 5439, "date": " 11/02/2021", "time_start": "20:00", "time_end": "21:00"}, {"key": 6567, "date": " 10/02/2021", "time_start": "18:00", "time_end": "19:00"}]}, {"key": 142, "name": " go get it", "city": " טירה", "address": " ", "location": {"lat": 32.2334909, "lng": 34.9608799}, "datetime": [{"key": 142, "date": " 22/02/2021", "time_start": "10:00", "time_end": "15:00"}, {"key": 321, "date": " 21/02/2021", "time_start": "15:00", "time_end": "21:00"}, {"key": 597, "date": " 20/02/2021", "time_start": "12:30", "time_end": "21:00"}]}, {"key": 143, "name": " אורט בית הערבה", "city": " ירושלים", "address": " בית הערבה 7 ", "location": {"lat": 31.7501607, "lng": 35.2217642}, "datetime": [{"key": 143, "date": " 22/02/2021", "time_start": "10:00", "time_end": "12:00"}]}, {"key": 144, "name": " איי דיגיטל", "city": " באר שבע", "address": "  125 ", "location": {"lat": 31.250142, "lng": 34.7713409}, "datetime": [{"key": 144, "date": " 22/02/2021", "time_start": "10:00", "time_end": "15:00"}, {"key": 394, "date": " 21/02/2021", "time_start": "10:00", "time_end": "16:00"}, {"key": 1180, "date": " 18/02/2021", "time_start": "10:00", "time_end": "16:30"}, {"key": 1671, "date": " 17/02/2021", "time_start": "10:00", "time_end": "16:30"}, {"key": 2321, "date": " 16/02/2021", "time_start": "10:00", "time_end": "16:30"}]}, {"key": 145, "name": " בית כנסת אור ישראל", "city": " בני ברק", "address": " בן נון 17 ", "location": {"lat": 32.0926638, "lng": 34.822589}, "datetime": [{"key": 145, "date": " 22/02/2021", "time_start": "10:00", "time_end": "13:00"}, {"key": 396, "date": " 21/02/2021", "time_start": "10:00", "time_end": "13:00"}]}, {"key": 146, "name": " הום סנטר", "city": " ירושלים", "address": "  106 ", "location": {"lat": 31.7514765, "lng": 35.1881396}, "datetime": [{"key": 146, "date": " 22/02/2021", "time_start": "10:00", "time_end": "11:00"}, {"key": 351, "date": " 21/02/2021", "time_start": "13:00", "time_end": "20:00"}, {"key": 825, "date": " 19/02/2021", "time_start": "09:00", "time_end": "14:00"}, {"key": 1119, "date": " 18/02/2021", "time_start": "13:00", "time_end": "21:00"}, {"key": 1719, "date": " 17/02/2021", "time_start": "09:00", "time_end": "16:00"}, {"key": 2376, "date": " 16/02/2021", "time_start": "09:00", "time_end": "16:00"}]}, {"key": 147, "name": " כללית", "city": " קרית גת", "address": " שד העצמאות 38 ", "location": {"lat": 31.6102869, "lng": 34.7719753}, "datetime": [{"key": 147, "date": " 22/02/2021", "time_start": "10:00", "time_end": "11:00"}]}, {"key": 149, "name": " קניון אחים ישראל", "city": " ירושלים", "address": " יד חרוצים 13 ", "location": {"lat": 31.7510983, "lng": 35.2153629}, "datetime": [{"key": 149, "date": " 22/02/2021", "time_start": "10:00", "time_end": "10:30"}]}, {"key": 150, "name": " קופת חולים מאוחדת", "city": " אשקלון", "address": " הגבורה 11 ", "location": {"lat": 31.6651013, "lng": 34.5661204}, "datetime": [{"key": 150, "date": " 22/02/2021", "time_start": "09:40", "time_end": "10:00"}]}, {"key": 151, "name": " בית ספר", "city": " מצפה רמון", "address": "  18 ", "location": {"lat": 30.6089614, "lng": 34.803848}, "datetime": [{"key": 151, "date": " 22/02/2021", "time_start": "09:30", "time_end": "12:00"}, {"key": 412, "date": " 21/02/2021", "time_start": "09:30", "time_end": "10:30"}]}, {"key": 152, "name": " גטסאט", "city": " רחובות", "address": " ", "location": {"lat": 31.892773, "lng": 34.811272}, "datetime": [{"key": 152, "date": " 22/02/2021", "time_start": "09:30", "time_end": "13:00"}]}, {"key": 153, "name": " גן ציבורי", "city": " עץ אפרים", "address": " ", "location": {"lat": 32.118996, "lng": 35.04766499999999}, "datetime": [{"key": 153, "date": " 22/02/2021", "time_start": "09:30", "time_end": "11:30"}]}, {"key": 154, "name": " מקס סטוק", "city": " רחובות", "address": " ביל''ו 41 ", "location": {"lat": 31.8939074, "lng": 34.8092698}, "datetime": [{"key": 154, "date": " 22/02/2021", "time_start": "09:30", "time_end": "11:00"}, {"key": 781, "date": " 19/02/2021", "time_start": "10:30", "time_end": "11:00"}]}, {"key": 155, "name": " סופר פארם טבריה", "city": " טבריה", "address": " השילוח 1 ", "location": {"lat": 32.7876939, "lng": 35.538085}, "datetime": [{"key": 155, "date": " 22/02/2021", "time_start": "09:30", "time_end": "09:45"}, {"key": 1479, "date": " 17/02/2021", "time_start": "17:15", "time_end": "17:40"}, {"key": 2723, "date": " 15/02/2021", "time_start": "21:20", "time_end": "21:40"}, {"key": 6561, "date": " 10/02/2021", "time_start": "18:00", "time_end": "19:00"}]}, {"key": 156, "name": " משביר  עובדת במחלקת טקסטיל", "city": " חולון", "address": " המשביר  ", "location": {"lat": 32.0124371, "lng": 34.7792759}, "datetime": [{"key": 156, "date": " 22/02/2021", "time_start": "09:20", "time_end": "17:20"}, {"key": 414, "date": " 21/02/2021", "time_start": "09:20", "time_end": "17:20"}]}, {"key": 157, "name": " וובי ביטוח רכב", "city": " בני ברק", "address": "  9 ", "location": {"lat": 32.0831056, "lng": 34.8040666}, "datetime": [{"key": 157, "date": " 22/02/2021", "time_start": "09:15", "time_end": "10:30"}, {"key": 1215, "date": " 18/02/2021", "time_start": "09:00", "time_end": "18:30"}, {"key": 1721, "date": " 17/02/2021", "time_start": "09:00", "time_end": "18:31"}, {"key": 2377, "date": " 16/02/2021", "time_start": "09:00", "time_end": "18:30"}, {"key": 2480, "date": " 16/02/2021", "time_start": "08:00", "time_end": "18:00"}, {"key": 3255, "date": " 15/02/2021", "time_start": "08:00", "time_end": "18:00"}, {"key": 4400, "date": " 14/02/2021", "time_start": "00:00", "time_end": "00:00"}, {"key": 6140, "date": " 11/02/2021", "time_start": "08:00", "time_end": "18:00"}, {"key": 7114, "date": " 10/02/2021", "time_start": "08:00", "time_end": "18:00"}]}, {"key": 158, "name": " מתחם לבדיקת קורונה", "city": " נתיבות", "address": " בעלי מלאכה  ", "location": {"lat": 31.418213, "lng": 34.595217}, "datetime": [{"key": 158, "date": " 22/02/2021", "time_start": "09:15", "time_end": "09:30"}, {"key": 3035, "date": " 15/02/2021", "time_start": "11:30", "time_end": "12:30"}, {"key": 3063, "date": " 15/02/2021", "time_start": "11:00", "time_end": "12:00"}, {"key": 5987, "date": " 11/02/2021", "time_start": "09:30", "time_end": "10:00"}]}, {"key": 159, "name": " אושר עד", "city": " בני ברק", "address": " הקישון 11 ", "location": {"lat": 32.0989302, "lng": 34.8301042}, "datetime": [{"key": 159, "date": " 22/02/2021", "time_start": "09:00", "time_end": "16:00"}, {"key": 416, "date": " 21/02/2021", "time_start": "09:00", "time_end": "16:00"}, {"key": 822, "date": " 19/02/2021", "time_start": "09:00", "time_end": "16:00"}, {"key": 957, "date": " 18/02/2021", "time_start": "20:00", "time_end": "21:30"}, {"key": 966, "date": " 18/02/2021", "time_start": "19:00", "time_end": "20:00"}, {"key": 1208, "date": " 18/02/2021", "time_start": "09:00", "time_end": "16:00"}, {"key": 1712, "date": " 17/02/2021", "time_start": "09:00", "time_end": "16:00"}, {"key": 2172, "date": " 16/02/2021", "time_start": "14:00", "time_end": "15:30"}, {"key": 2285, "date": " 16/02/2021", "time_start": "11:00", "time_end": "12:00"}, {"key": 2369, "date": " 16/02/2021", "time_start": "09:00", "time_end": "16:00"}, {"key": 2747, "date": " 15/02/2021", "time_start": "19:30", "time_end": "20:00"}, {"key": 3141, "date": " 15/02/2021", "time_start": "09:00", "time_end": "16:00"}, {"key": 5414, "date": " 11/02/2021", "time_start": "21:00", "time_end": "22:30"}, {"key": 6452, "date": " 10/02/2021", "time_start": "22:00", "time_end": "22:00"}, {"key": 6459, "date": " 10/02/2021", "time_start": "21:30", "time_end": "23:00"}, {"key": 6462, "date": " 10/02/2021", "time_start": "21:00", "time_end": "23:00"}, {"key": 6479, "date": " 10/02/2021", "time_start": "20:00", "time_end": "22:00"}]}, {"key": 160, "name": " בודי שופ", "city": " אשקלון", "address": "  21 ", "location": {"lat": 31.6645884, "lng": 34.5656551}, "datetime": [{"key": 160, "date": " 22/02/2021", "time_start": "09:00", "time_end": "14:00"}, {"key": 283, "date": " 21/02/2021", "time_start": "17:00", "time_end": "21:30"}]}, {"key": 161, "name": " מכבי מרכז הישן", "city": " אריאל", "address": " ", "location": {"lat": 32.1046156, "lng": 35.1875492}, "datetime": [{"key": 161, "date": " 22/02/2021", "time_start": "09:00", "time_end": "10:00"}, {"key": 390, "date": " 21/02/2021", "time_start": "10:30", "time_end": "11:15"}]}, {"key": 162, "name": " תיכון יסוד תורני סביבתי", "city": " מצפה רמון", "address": "  18 ", "location": {"lat": 30.61212949999999, "lng": 34.797841}, "datetime": [{"key": 162, "date": " 22/02/2021", "time_start": "09:00", "time_end": "12:00"}, {"key": 427, "date": " 21/02/2021", "time_start": "09:00", "time_end": "12:00"}]}, {"key": 163, "name": " מכללת כנרת סניף נצרת", "city": " נצרת", "address": " ", "location": {"lat": 32.7053209, "lng": 35.5910307}, "datetime": [{"key": 163, "date": " 22/02/2021", "time_start": "08:30", "time_end": "11:30"}, {"key": 222, "date": " 22/02/2021", "time_start": "00:00", "time_end": "00:00"}]}, {"key": 164, "name": " מרכז שבילים", "city": " פתח תקווה", "address": " ", "location": {"lat": 32.5917618, "lng": 35.0749108}, "datetime": [{"key": 164, "date": " 22/02/2021", "time_start": "08:30", "time_end": "09:30"}]}, {"key": 165, "name": " גן דליות הרצליה", "city": " הרצליה", "address": "  72 ", "location": {"lat": 32.1712986, "lng": 34.8515128}, "datetime": [{"key": 165, "date": " 22/02/2021", "time_start": "08:15", "time_end": "09:30"}, {"key": 433, "date": " 21/02/2021", "time_start": "08:15", "time_end": "14:00"}, {"key": 1249, "date": " 18/02/2021", "time_start": "08:15", "time_end": "14:00"}]}, {"key": 166, "name": " אנדרומדה", "city": " כפר קאסם", "address": " ", "location": {"lat": 32.1077736, "lng": 34.9561549}, "datetime": [{"key": 166, "date": " 22/02/2021", "time_start": "08:00", "time_end": "17:30"}, {"key": 439, "date": " 21/02/2021", "time_start": "08:00", "time_end": "17:30"}, {"key": 1762, "date": " 17/02/2021", "time_start": "08:00", "time_end": "15:30"}, {"key": 2436, "date": " 16/02/2021", "time_start": "08:00", "time_end": "15:30"}, {"key": 3219, "date": " 15/02/2021", "time_start": "08:00", "time_end": "17:30"}, {"key": 4115, "date": " 14/02/2021", "time_start": "08:00", "time_end": "17:30"}]}, {"key": 167, "name": " ביס ממלכתי אפרים בן דוד קרית ג", "city": " קרית גת", "address": " שמואל הנביא 13 ", "location": {"lat": 31.616825, "lng": 34.757601}, "datetime": [{"key": 167, "date": " 22/02/2021", "time_start": "08:00", "time_end": "09:30"}]}, {"key": 168, "name": " ביסקוטי", "city": " בני ברק", "address": " הירקון 67 ", "location": {"lat": 32.0982404, "lng": 34.8320201}, "datetime": [{"key": 168, "date": " 22/02/2021", "time_start": "08:00", "time_end": "17:00"}, {"key": 440, "date": " 21/02/2021", "time_start": "08:00", "time_end": "17:00"}, {"key": 1266, "date": " 18/02/2021", "time_start": "08:00", "time_end": "17:00"}]}, {"key": 169, "name": " בית יעקב כיתה ב 5", "city": " בני ברק", "address": " רמב''ם  ", "location": {"lat": 32.0894035, "lng": 34.8297563}, "datetime": [{"key": 169, "date": " 22/02/2021", "time_start": "08:00", "time_end": "13:00"}]}, {"key": 170, "name": " בית ספר אלהלאל", "city": " רהט", "address": " ", "location": {"lat": 31.3884786, "lng": 34.7696609}, "datetime": [{"key": 170, "date": " 22/02/2021", "time_start": "08:00", "time_end": "13:30"}, {"key": 442, "date": " 21/02/2021", "time_start": "08:00", "time_end": "13:30"}, {"key": 2443, "date": " 16/02/2021", "time_start": "08:00", "time_end": "10:15"}, {"key": 2444, "date": " 16/02/2021", "time_start": "08:00", "time_end": "14:00"}, {"key": 3229, "date": " 15/02/2021", "time_start": "08:00", "time_end": "12:15"}, {"key": 3231, "date": " 15/02/2021", "time_start": "08:00", "time_end": "10:15"}, {"key": 3232, "date": " 15/02/2021", "time_start": "08:00", "time_end": "14:00"}, {"key": 4125, "date": " 14/02/2021", "time_start": "08:00", "time_end": "12:15"}, {"key": 4127, "date": " 14/02/2021", "time_start": "08:00", "time_end": "10:15"}, {"key": 6108, "date": " 11/02/2021", "time_start": "08:00", "time_end": "12:15"}]}, {"key": 171, "name": " בית ספר המכיל לב", "city": " חדרה", "address": " ארלוזורוב 27 ", "location": {"lat": 32.4349498, "lng": 34.9316394}, "datetime": [{"key": 171, "date": " 22/02/2021", "time_start": "08:00", "time_end": "11:45"}]}, {"key": 172, "name": " גן סלעית", "city": " תל אביב - יפו", "address": " הפלמ''ח 14 ", "location": {"lat": 32.0631402, "lng": 34.7938064}, "datetime": [{"key": 172, "date": " 22/02/2021", "time_start": "08:00", "time_end": "13:30"}, {"key": 449, "date": " 21/02/2021", "time_start": "08:00", "time_end": "13:30"}]}, {"key": 173, "name": " גן פעמון", "city": " געתון", "address": " ", "location": {"lat": 33.006075, "lng": 35.213831}, "datetime": [{"key": 173, "date": " 22/02/2021", "time_start": "08:00", "time_end": "16:00"}]}, {"key": 176, "name": " טכנולוגי ערערה", "city": " ערערה", "address": " ", "location": {"lat": 32.496323, "lng": 35.097292}, "datetime": [{"key": 176, "date": " 22/02/2021", "time_start": "08:00", "time_end": "14:00"}]}, {"key": 177, "name": " יסודי תרשיחא", "city": " מעלות-תרשיחא", "address": " ", "location": {"lat": 33.0141376, "lng": 35.2684067}, "datetime": [{"key": 177, "date": " 22/02/2021", "time_start": "08:00", "time_end": "13:00"}]}, {"key": 178, "name": " מאוחדת", "city": " אשדוד", "address": " שבט לוי 16 ", "location": {"lat": 31.7780712, "lng": 34.6358425}, "datetime": [{"key": 178, "date": " 22/02/2021", "time_start": "08:00", "time_end": "08:30"}]}, {"key": 179, "name": " מדעים ויהדות", "city": " חדרה", "address": " ", "location": {"lat": 32.4315178, "lng": 34.9266228}, "datetime": [{"key": 179, "date": " 22/02/2021", "time_start": "08:00", "time_end": "14:00"}]}, {"key": 180, "name": " מכבי מרפאת אחיות", "city": " שדרות", "address": " אהבת ישראל 7 ", "location": {"lat": 31.5258235, "lng": 34.5926797}, "datetime": [{"key": 180, "date": " 22/02/2021", "time_start": "08:00", "time_end": "09:00"}]}, {"key": 182, "name": " מרכז שיקום אלון", "city": " ירושלים", "address": " ", "location": {"lat": 31.7487062, "lng": 35.2087811}, "datetime": [{"key": 182, "date": " 22/02/2021", "time_start": "08:00", "time_end": "16:00"}, {"key": 639, "date": " 20/02/2021", "time_start": "08:00", "time_end": "16:00"}]}, {"key": 183, "name": " נפרומור יחידת ב", "city": " באר שבע", "address": " יחיל חיים 3 ", "location": {"lat": 31.2441491, "lng": 34.8016164}, "datetime": [{"key": 183, "date": " 22/02/2021", "time_start": "08:00", "time_end": "17:00"}, {"key": 464, "date": " 21/02/2021", "time_start": "08:00", "time_end": "17:00"}, {"key": 882, "date": " 19/02/2021", "time_start": "08:00", "time_end": "17:00"}, {"key": 1827, "date": " 17/02/2021", "time_start": "08:00", "time_end": "17:00"}, {"key": 3297, "date": " 15/02/2021", "time_start": "08:00", "time_end": "17:00"}]}, {"key": 184, "name": " קפה בגבעה", "city": " גבעת חיים (איחוד)", "address": " ", "location": {"lat": 32.3954411, "lng": 34.9352387}, "datetime": [{"key": 184, "date": " 22/02/2021", "time_start": "08:00", "time_end": "18:00"}, {"key": 468, "date": " 21/02/2021", "time_start": "08:00", "time_end": "18:00"}, {"key": 885, "date": " 19/02/2021", "time_start": "08:00", "time_end": "14:00"}, {"key": 1323, "date": " 18/02/2021", "time_start": "08:00", "time_end": "18:00"}]}, {"key": 185, "name": " רמי לוי", "city": " כפר סבא", "address": " גלגלי פלדה 5 ", "location": {"lat": 32.1728401, "lng": 34.9275245}, "datetime": [{"key": 185, "date": " 22/02/2021", "time_start": "08:00", "time_end": "08:30"}, {"key": 1050, "date": " 18/02/2021", "time_start": "16:00", "time_end": "16:30"}, {"key": 6618, "date": " 10/02/2021", "time_start": "17:00", "time_end": "18:00"}, {"key": 6818, "date": " 10/02/2021", "time_start": "13:00", "time_end": "15:00"}, {"key": 6998, "date": " 10/02/2021", "time_start": "09:30", "time_end": "10:30"}]}, {"key": 186, "name": " רמי לוי אזור תעשייה דרומי אשקל", "city": " אשקלון", "address": " ", "location": {"lat": 31.6355114, "lng": 34.5528526}, "datetime": [{"key": 186, "date": " 22/02/2021", "time_start": "08:00", "time_end": "14:00"}, {"key": 470, "date": " 21/02/2021", "time_start": "08:00", "time_end": "15:00"}, {"key": 471, "date": " 21/02/2021", "time_start": "08:00", "time_end": "14:00"}, {"key": 1000, "date": " 18/02/2021", "time_start": "18:00", "time_end": "22:30"}, {"key": 1051, "date": " 18/02/2021", "time_start": "16:00", "time_end": "22:00"}, {"key": 1167, "date": " 18/02/2021", "time_start": "11:00", "time_end": "21:00"}, {"key": 1325, "date": " 18/02/2021", "time_start": "08:00", "time_end": "14:00"}, {"key": 1534, "date": " 17/02/2021", "time_start": "16:00", "time_end": "22:00"}, {"key": 1663, "date": " 17/02/2021", "time_start": "11:00", "time_end": "21:00"}, {"key": 1842, "date": " 17/02/2021", "time_start": "08:00", "time_end": "14:00"}, {"key": 2303, "date": " 16/02/2021", "time_start": "11:00", "time_end": "21:00"}, {"key": 2538, "date": " 16/02/2021", "time_start": "08:00", "time_end": "14:00"}, {"key": 3313, "date": " 15/02/2021", "time_start": "08:00", "time_end": "14:00"}, {"key": 3429, "date": " 15/02/2021", "time_start": "06:30", "time_end": "17:00"}, {"key": 3524, "date": " 15/02/2021", "time_start": "00:00", "time_end": "00:00"}, {"key": 4012, "date": " 14/02/2021", "time_start": "10:00", "time_end": "11:00"}, {"key": 4339, "date": " 14/02/2021", "time_start": "06:30", "time_end": "17:00"}, {"key": 5460, "date": " 11/02/2021", "time_start": "19:30", "time_end": "20:30"}]}, {"key": 187, "name": " רעים", "city": " אשדוד", "address": " ", "location": {"lat": 31.81090919999999, "lng": 34.6417316}, "datetime": [{"key": 187, "date": " 22/02/2021", "time_start": "08:00", "time_end": "14:00"}, {"key": 472, "date": " 21/02/2021", "time_start": "08:00", "time_end": "14:00"}]}, {"key": 188, "name": " שופר סל", "city": " אריאל", "address": " ", "location": {"lat": 32.1055276, "lng": 35.17252380000001}, "datetime": [{"key": 188, "date": " 22/02/2021", "time_start": "08:00", "time_end": "08:30"}, {"key": 5867, "date": " 11/02/2021", "time_start": "12:00", "time_end": "13:00"}, {"key": 6495, "date": " 10/02/2021", "time_start": "20:00", "time_end": "21:00"}]}, {"key": 189, "name": " שזר", "city": " אשדוד", "address": " ", "location": {"lat": 31.7993622, "lng": 34.6487448}, "datetime": [{"key": 189, "date": " 22/02/2021", "time_start": "08:00", "time_end": "12:45"}, {"key": 473, "date": " 21/02/2021", "time_start": "08:00", "time_end": "12:30"}, {"key": 474, "date": " 21/02/2021", "time_start": "08:00", "time_end": "12:45"}]}, {"key": 190, "name": " ביו דיירטק", "city": " נתניה", "address": " הקדר 42 ", "location": {"lat": 32.3223547, "lng": 34.8811949}, "datetime": [{"key": 190, "date": " 22/02/2021", "time_start": "07:30", "time_end": "09:00"}, {"key": 191, "date": " 22/02/2021", "time_start": "07:30", "time_end": "09:00"}, {"key": 192, "date": " 22/02/2021", "time_start": "07:30", "time_end": "09:00"}, {"key": 193, "date": " 22/02/2021", "time_start": "07:30", "time_end": "17:00"}, {"key": 482, "date": " 21/02/2021", "time_start": "07:30", "time_end": "17:00"}, {"key": 483, "date": " 21/02/2021", "time_start": "07:30", "time_end": "17:00"}, {"key": 486, "date": " 21/02/2021", "time_start": "07:30", "time_end": "17:00"}, {"key": 2567, "date": " 16/02/2021", "time_start": "07:30", "time_end": "17:00"}, {"key": 3335, "date": " 15/02/2021", "time_start": "07:30", "time_end": "17:30"}, {"key": 3348, "date": " 15/02/2021", "time_start": "07:30", "time_end": "17:00"}]}, {"key": 194, "name": " שופרסל שיל שערי חדרה", "city": " חדרה", "address": " צה''ל 32 ", "location": {"lat": 32.4397201, "lng": 34.9314193}, "datetime": [{"key": 194, "date": " 22/02/2021", "time_start": "07:30", "time_end": "16:00"}, {"key": 898, "date": " 19/02/2021", "time_start": "07:30", "time_end": "10:00"}, {"key": 1349, "date": " 18/02/2021", "time_start": "07:30", "time_end": "16:00"}, {"key": 1861, "date": " 17/02/2021", "time_start": "07:30", "time_end": "16:00"}, {"key": 2572, "date": " 16/02/2021", "time_start": "07:30", "time_end": "16:00"}, {"key": 3360, "date": " 15/02/2021", "time_start": "07:30", "time_end": "16:00"}]}, {"key": 196, "name": " גן סייעת", "city": " שדרות", "address": " ", "location": {"lat": 31.530457, "lng": 34.6087806}, "datetime": [{"key": 196, "date": " 22/02/2021", "time_start": "07:00", "time_end": "16:00"}, {"key": 490, "date": " 21/02/2021", "time_start": "07:00", "time_end": "16:00"}]}, {"key": 197, "name": " הבורסה לנירות", "city": " תל אביב - יפו", "address": " אחוזת בית 2 ", "location": {"lat": 32.0643377, "lng": 34.7703709}, "datetime": [{"key": 197, "date": " 22/02/2021", "time_start": "07:00", "time_end": "14:30"}, {"key": 1361, "date": " 18/02/2021", "time_start": "07:00", "time_end": "14:30"}, {"key": 1875, "date": " 17/02/2021", "time_start": "07:00", "time_end": "14:30"}]}, {"key": 198, "name": " מפעל בן בסט לתכשיטים", "city": " תל אביב - יפו", "address": "  17 ", "location": {"lat": 32.0534628, "lng": 34.7700926}, "datetime": [{"key": 198, "date": " 22/02/2021", "time_start": "07:00", "time_end": "16:00"}, {"key": 494, "date": " 21/02/2021", "time_start": "07:00", "time_end": "16:00"}, {"key": 1370, "date": " 18/02/2021", "time_start": "07:00", "time_end": "16:00"}, {"key": 1887, "date": " 17/02/2021", "time_start": "07:00", "time_end": "16:00"}, {"key": 2601, "date": " 16/02/2021", "time_start": "07:00", "time_end": "16:00"}, {"key": 3394, "date": " 15/02/2021", "time_start": "07:00", "time_end": "16:00"}]}, {"key": 199, "name": " מפעל מצר פלסט", "city": " מצר", "address": " ", "location": {"lat": 32.4430601, "lng": 35.0485839}, "datetime": [{"key": 199, "date": " 22/02/2021", "time_start": "07:00", "time_end": "16:00"}]}, {"key": 200, "name": " קופת חולים כללית", "city": " מודיעין עילית", "address": " מסילת יוסף 34 ", "location": {"lat": 31.9295248, "lng": 35.0430122}, "datetime": [{"key": 200, "date": " 22/02/2021", "time_start": "07:00", "time_end": "20:00"}, {"key": 495, "date": " 21/02/2021", "time_start": "07:00", "time_end": "20:00"}, {"key": 5188, "date": " 12/02/2021", "time_start": "08:30", "time_end": "08:50"}]}, {"key": 201, "name": " לימוון שטייסל", "city": " יבנה", "address": " נחל פולג  ", "location": {"lat": 31.90109, "lng": 34.73885000000001}, "datetime": [{"key": 201, "date": " 22/02/2021", "time_start": "06:40", "time_end": "18:00"}, {"key": 497, "date": " 21/02/2021", "time_start": "06:40", "time_end": "16:00"}]}, {"key": 204, "name": " מפעל הגביע", "city": " נתיבות", "address": " ", "location": {"lat": 31.4176974, "lng": 34.5954431}, "datetime": [{"key": 204, "date": " 22/02/2021", "time_start": "06:30", "time_end": "09:30"}, {"key": 1929, "date": " 17/02/2021", "time_start": "00:01", "time_end": "06:00"}, {"key": 2037, "date": " 16/02/2021", "time_start": "18:00", "time_end": "23:59"}, {"key": 2603, "date": " 16/02/2021", "time_start": "07:00", "time_end": "18:00"}, {"key": 2625, "date": " 16/02/2021", "time_start": "06:30", "time_end": "17:30"}, {"key": 2652, "date": " 16/02/2021", "time_start": "00:01", "time_end": "06:00"}, {"key": 2793, "date": " 15/02/2021", "time_start": "18:00", "time_end": "23:59"}, {"key": 3284, "date": " 15/02/2021", "time_start": "08:00", "time_end": "16:00"}, {"key": 3285, "date": " 15/02/2021", "time_start": "08:00", "time_end": "16:00"}, {"key": 3286, "date": " 15/02/2021", "time_start": "08:00", "time_end": "16:00"}, {"key": 3427, "date": " 15/02/2021", "time_start": "06:30", "time_end": "17:30"}, {"key": 3598, "date": " 14/02/2021", "time_start": "18:00", "time_end": "23:59"}, {"key": 4195, "date": " 14/02/2021", "time_start": "08:00", "time_end": "16:00"}, {"key": 4196, "date": " 14/02/2021", "time_start": "08:00", "time_end": "16:00"}, {"key": 4419, "date": " 14/02/2021", "time_start": "00:00", "time_end": "00:00"}, {"key": 5309, "date": " 12/02/2021", "time_start": "07:00", "time_end": "12:00"}, {"key": 6188, "date": " 11/02/2021", "time_start": "08:00", "time_end": "16:00"}, {"key": 6311, "date": " 11/02/2021", "time_start": "07:00", "time_end": "12:00"}, {"key": 7144, "date": " 10/02/2021", "time_start": "08:00", "time_end": "23:59"}]}, {"key": 205, "name": " מפעל פולירית", "city": " זיקים", "address": " ", "location": {"lat": 31.6060719, "lng": 34.5204565}, "datetime": [{"key": 205, "date": " 22/02/2021", "time_start": "06:30", "time_end": "17:30"}, {"key": 501, "date": " 21/02/2021", "time_start": "06:30", "time_end": "17:30"}, {"key": 1382, "date": " 18/02/2021", "time_start": "06:30", "time_end": "17:30"}, {"key": 1905, "date": " 17/02/2021", "time_start": "06:30", "time_end": "17:30"}, {"key": 2626, "date": " 16/02/2021", "time_start": "06:30", "time_end": "17:30"}, {"key": 3428, "date": " 15/02/2021", "time_start": "06:30", "time_end": "17:30"}]}, {"key": 206, "name": " נטע עופר יצור מכליות מעיין צבי", "city": " מעין צבי", "address": " ", "location": {"lat": 32.568484, "lng": 34.940623}, "datetime": [{"key": 206, "date": " 22/02/2021", "time_start": "06:30", "time_end": "14:00"}]}, {"key": 208, "name": " שופרסל דיל אקסטרה סגולה", "city": " פתח תקווה", "address": " הרב פינטו מסעוד 18 ", "location": {"lat": 32.0999994, "lng": 34.89518450000001}, "datetime": [{"key": 208, "date": " 22/02/2021", "time_start": "06:00", "time_end": "09:00"}, {"key": 505, "date": " 21/02/2021", "time_start": "06:00", "time_end": "18:00"}, {"key": 915, "date": " 19/02/2021", "time_start": "06:00", "time_end": "11:30"}, {"key": 916, "date": " 19/02/2021", "time_start": "06:00", "time_end": "09:00"}, {"key": 999, "date": " 18/02/2021", "time_start": "18:00", "time_end": "20:00"}, {"key": 1391, "date": " 18/02/2021", "time_start": "06:00", "time_end": "17:00"}, {"key": 1919, "date": " 17/02/2021", "time_start": "06:00", "time_end": "18:00"}, {"key": 6033, "date": " 11/02/2021", "time_start": "09:00", "time_end": "16:31"}, {"key": 6694, "date": " 10/02/2021", "time_start": "15:30", "time_end": "21:15"}]}, {"key": 209, "name": " SEVEN ARCHES HOTEL", "city": " ירושלים", "address": " ", "location": {"lat": 31.7759858, "lng": 35.243916}, "datetime": [{"key": 209, "date": " 22/02/2021", "time_start": "00:00", "time_end": "23:55"}, {"key": 508, "date": " 21/02/2021", "time_start": "00:00", "time_end": "23:55"}]}, {"key": 210, "name": " בית חולים שיבא", "city": " רמת גן", "address": " דרך שיבא 2 ", "location": {"lat": 32.0521061, "lng": 34.8378938}, "datetime": [{"key": 210, "date": " 22/02/2021", "time_start": "00:00", "time_end": "00:00"}, {"key": 611, "date": " 20/02/2021", "time_start": "11:00", "time_end": "16:00"}, {"key": 2717, "date": " 16/02/2021", "time_start": "00:00", "time_end": "04:00"}, {"key": 5717, "date": " 11/02/2021", "time_start": "14:45", "time_end": "23:00"}, {"key": 5889, "date": " 11/02/2021", "time_start": "11:15", "time_end": "12:00"}, {"key": 6443, "date": " 11/02/2021", "time_start": "00:00", "time_end": "00:00"}, {"key": 7295, "date": " 10/02/2021", "time_start": "07:00", "time_end": "15:30"}]}, {"key": 211, "name": " בית ספר אור ישראל", "city": " תל אביב - יפו", "address": " ישראל מסלנט 42 ", "location": {"lat": 32.0520001, "lng": 34.7819042}, "datetime": [{"key": 211, "date": " 22/02/2021", "time_start": "00:00", "time_end": "00:00"}]}, {"key": 213, "name": " גן מחניים תלי", "city": " אשקלון", "address": " מחניים 5 ", "location": {"lat": 31.6683032, "lng": 34.558586}, "datetime": [{"key": 213, "date": " 22/02/2021", "time_start": "00:00", "time_end": "00:00"}, {"key": 478, "date": " 21/02/2021", "time_start": "07:50", "time_end": "14:00"}]}, {"key": 214, "name": " חוות חיות", "city": " בני ציון", "address": "  181 ", "location": {"lat": 32.219839, "lng": 34.868378}, "datetime": [{"key": 214, "date": " 22/02/2021", "time_start": "00:00", "time_end": "00:00"}]}, {"key": 215, "name": " ישיבה חרדית", "city": " בני ברק", "address": " ", "location": {"lat": 32.0762787, "lng": 34.8401157}, "datetime": [{"key": 215, "date": " 22/02/2021", "time_start": "00:00", "time_end": "00:00"}, {"key": 657, "date": " 20/02/2021", "time_start": "00:00", "time_end": "00:00"}, {"key": 925, "date": " 19/02/2021", "time_start": "00:00", "time_end": "00:00"}]}, {"key": 216, "name": " מאיר", "city": " תל אביב - יפו", "address": " יערי מאיר  ", "location": {"lat": 32.0997238, "lng": 34.7863205}, "datetime": [{"key": 216, "date": " 22/02/2021", "time_start": "00:00", "time_end": "00:00"}]}, {"key": 219, "name": " מיתרים", "city": " חולון", "address": " שד קוגל 26 ", "location": {"lat": 32.0243314, "lng": 34.7747394}, "datetime": [{"key": 219, "date": " 22/02/2021", "time_start": "00:00", "time_end": "00:00"}, {"key": 524, "date": " 21/02/2021", "time_start": "00:00", "time_end": "00:00"}]}, {"key": 220, "name": " מכינה קדם צבאית אלישע", "city": " חלמיש", "address": " ", "location": {"lat": 32.0555134, "lng": 34.7630253}, "datetime": [{"key": 220, "date": " 22/02/2021", "time_start": "00:00", "time_end": "00:00"}]}, {"key": 225, "name": " תפארת בנים", "city": " נתניה", "address": " תפארת בנים  ", "location": {"lat": 32.329339, "lng": 34.851927}, "datetime": [{"key": 225, "date": " 22/02/2021", "time_start": "00:00", "time_end": "00:00"}]}, {"key": 226, "name": " מפעל גדות חיפה", "city": " חיפה", "address": "  117 ", "location": {"lat": 32.7977413, "lng": 35.0458718}, "datetime": [{"key": 226, "date": " 21/02/2021", "time_start": "22:00", "time_end": "23:59"}]}, {"key": 228, "name": " קניון", "city": " ראשון לציון", "address": " סחרוב דוד 21 ", "location": {"lat": 31.9913925, "lng": 34.774242}, "datetime": [{"key": 228, "date": " 21/02/2021", "time_start": "21:30", "time_end": "22:00"}, {"key": 231, "date": " 21/02/2021", "time_start": "21:00", "time_end": "22:00"}, {"key": 331, "date": " 21/02/2021", "time_start": "15:00", "time_end": "16:00"}]}, {"key": 229, "name": " אושר עד", "city": " ירושלים", "address": " שמגר 16 ", "location": {"lat": 31.79484, "lng": 35.2082473}, "datetime": [{"key": 229, "date": " 21/02/2021", "time_start": "21:00", "time_end": "22:00"}, {"key": 746, "date": " 19/02/2021", "time_start": "11:30", "time_end": "12:30"}, {"key": 1623, "date": " 17/02/2021", "time_start": "12:00", "time_end": "13:00"}, {"key": 2284, "date": " 16/02/2021", "time_start": "11:00", "time_end": "12:00"}, {"key": 2774, "date": " 15/02/2021", "time_start": "18:30", "time_end": "19:00"}, {"key": 3550, "date": " 14/02/2021", "time_start": "20:00", "time_end": "21:00"}, {"key": 3963, "date": " 14/02/2021", "time_start": "10:00", "time_end": "10:15"}, {"key": 5144, "date": " 12/02/2021", "time_start": "09:00", "time_end": "10:30"}, {"key": 5424, "date": " 11/02/2021", "time_start": "20:30", "time_end": "21:30"}]}, {"key": 230, "name": " חנות פוקס", "city": " ראשון לציון", "address": " שד נים  ", "location": {"lat": 31.9495532, "lng": 34.8043659}, "datetime": [{"key": 230, "date": " 21/02/2021", "time_start": "21:00", "time_end": "22:00"}]}, {"key": 232, "name": " ", "city": " יבנה", "address": " הנחל  ", "location": {"lat": 31.8696516, "lng": 34.73981029999999}, "datetime": [{"key": 232, "date": " 21/02/2021", "time_start": "20:30", "time_end": "08:00"}, {"key": 551, "date": " 20/02/2021", "time_start": "19:00", "time_end": "19:30"}, {"key": 1061, "date": " 18/02/2021", "time_start": "15:00", "time_end": "07:00"}, {"key": 1481, "date": " 17/02/2021", "time_start": "17:00", "time_end": "06:30"}, {"key": 2127, "date": " 16/02/2021", "time_start": "15:00", "time_end": "06:30"}, {"key": 2901, "date": " 15/02/2021", "time_start": "15:00", "time_end": "06:30"}]}, {"key": 233, "name": " דקטלום", "city": " באר שבע", "address": " דרך חברון 21 ", "location": {"lat": 31.2428728, "lng": 34.8121915}, "datetime": [{"key": 233, "date": " 21/02/2021", "time_start": "20:15", "time_end": "20:30"}]}, {"key": 234, "name": " ברוריה", "city": " תל אביב - יפו", "address": " דיזנגוף 50 ", "location": {"lat": 32.0753236, "lng": 34.7748838}, "datetime": [{"key": 234, "date": " 21/02/2021", "time_start": "20:00", "time_end": "21:00"}]}, {"key": 235, "name": " חנות זויה רח השלה", "city": " מודיעין עילית", "address": " ", "location": {"lat": 31.980493, "lng": 34.927696}, "datetime": [{"key": 235, "date": " 21/02/2021", "time_start": "20:00", "time_end": "22:00"}]}, {"key": 236, "name": " קניון רמות", "city": " ירושלים", "address": " שד גולדה מאיר 255 ", "location": {"lat": 31.8175, "lng": 35.1944444}, "datetime": [{"key": 236, "date": " 21/02/2021", "time_start": "20:00", "time_end": "21:00"}, {"key": 1027, "date": " 18/02/2021", "time_start": "17:00", "time_end": "18:00"}, {"key": 2187, "date": " 16/02/2021", "time_start": "14:00", "time_end": "15:00"}]}, {"key": 238, "name": " אייבורי חנות מחשבים ברעננה", "city": " נתניה", "address": " הגביש 6 ", "location": {"lat": 32.288654, "lng": 34.861894}, "datetime": [{"key": 238, "date": " 21/02/2021", "time_start": "19:30", "time_end": "05:00"}, {"key": 964, "date": " 18/02/2021", "time_start": "19:30", "time_end": "05:00"}, {"key": 1453, "date": " 17/02/2021", "time_start": "19:30", "time_end": "05:00"}, {"key": 2009, "date": " 16/02/2021", "time_start": "19:30", "time_end": "05:00"}, {"key": 2748, "date": " 15/02/2021", "time_start": "19:30", "time_end": "05:00"}, {"key": 3563, "date": " 14/02/2021", "time_start": "19:30", "time_end": "05:00"}]}, {"key": 239, "name": " אלוף הספורט ביג", "city": " באר שבע", "address": " דרך חברון 21 ", "location": {"lat": 31.2433843, "lng": 34.8118286}, "datetime": [{"key": 239, "date": " 21/02/2021", "time_start": "19:30", "time_end": "19:40"}]}, {"key": 240, "name": " אתר הפרדסנות ע\"ש מינקוב", "city": " רחובות", "address": " נחמני אבינועם  ", "location": {"lat": 31.9114451, "lng": 34.814268}, "datetime": [{"key": 240, "date": " 21/02/2021", "time_start": "19:30", "time_end": "20:00"}]}, {"key": 241, "name": " הוד מרקט", "city": " הרצליה", "address": " הראשונים 1 ", "location": {"lat": 32.1681408, "lng": 34.8421635}, "datetime": [{"key": 241, "date": " 21/02/2021", "time_start": "19:30", "time_end": "20:15"}]}, {"key": 242, "name": " יש חסד", "city": " בני ברק", "address": " ", "location": {"lat": 32.0908389, "lng": 34.8388806}, "datetime": [{"key": 242, "date": " 21/02/2021", "time_start": "19:30", "time_end": "21:00"}, {"key": 997, "date": " 18/02/2021", "time_start": "18:00", "time_end": "20:00"}, {"key": 1174, "date": " 18/02/2021", "time_start": "10:30", "time_end": "11:00"}, {"key": 2727, "date": " 15/02/2021", "time_start": "21:00", "time_end": "22:30"}, {"key": 3887, "date": " 14/02/2021", "time_start": "12:00", "time_end": "12:20"}, {"key": 6427, "date": " 11/02/2021", "time_start": "00:00", "time_end": "00:00"}, {"key": 6456, "date": " 10/02/2021", "time_start": "22:00", "time_end": "23:00"}, {"key": 7129, "date": " 10/02/2021", "time_start": "08:00", "time_end": "10:00"}, {"key": 7393, "date": " 10/02/2021", "time_start": "00:00", "time_end": "00:00"}]}, {"key": 243, "name": " מקס סטוק", "city": " כפר סבא", "address": " עתירי ידע 2 ", "location": {"lat": 32.1672842, "lng": 34.9285469}, "datetime": [{"key": 243, "date": " 21/02/2021", "time_start": "19:30", "time_end": "21:00"}, {"key": 3600, "date": " 14/02/2021", "time_start": "18:00", "time_end": "18:30"}, {"key": 4977, "date": " 12/02/2021", "time_start": "11:30", "time_end": "11:45"}, {"key": 5453, "date": " 11/02/2021", "time_start": "19:30", "time_end": "20:10"}]}, {"key": 244, "name": " סופר דוש", "city": " בת ים", "address": " הרב ניסנבוים יצחק 31 ", "location": {"lat": 32.0129237, "lng": 34.751188}, "datetime": [{"key": 244, "date": " 21/02/2021", "time_start": "19:30", "time_end": "20:30"}, {"key": 527, "date": " 21/02/2021", "time_start": "00:00", "time_end": "00:00"}, {"key": 883, "date": " 19/02/2021", "time_start": "08:00", "time_end": "14:00"}, {"key": 1231, "date": " 18/02/2021", "time_start": "09:00", "time_end": "21:00"}, {"key": 2278, "date": " 16/02/2021", "time_start": "11:30", "time_end": "12:00"}, {"key": 5654, "date": " 11/02/2021", "time_start": "16:00", "time_end": "17:00"}, {"key": 5655, "date": " 11/02/2021", "time_start": "16:00", "time_end": "17:30"}, {"key": 5858, "date": " 11/02/2021", "time_start": "12:00", "time_end": "16:00"}, {"key": 5875, "date": " 11/02/2021", "time_start": "11:45", "time_end": "12:30"}, {"key": 6469, "date": " 10/02/2021", "time_start": "21:00", "time_end": "22:00"}]}, {"key": 245, "name": " שופרסל קניון שאול המלך", "city": " באר שבע", "address": " שאול המלך 80 ", "location": {"lat": 31.2576606, "lng": 34.7678661}, "datetime": [{"key": 245, "date": " 21/02/2021", "time_start": "19:30", "time_end": "21:00"}, {"key": 2366, "date": " 16/02/2021", "time_start": "09:30", "time_end": "10:30"}, {"key": 4013, "date": " 14/02/2021", "time_start": "10:00", "time_end": "10:30"}, {"key": 5814, "date": " 11/02/2021", "time_start": "13:00", "time_end": "15:00"}]}, {"key": 246, "name": " לב יבנה", "city": " יבנה", "address": " שד דואני 20 ", "location": {"lat": 31.8728558, "lng": 34.7392448}, "datetime": [{"key": 246, "date": " 21/02/2021", "time_start": "19:20", "time_end": "19:40"}]}, {"key": 247, "name": " מקווה", "city": " ראשון לציון", "address": " יוסף הנשיא 5 ", "location": {"lat": 31.9507772, "lng": 34.8219702}, "datetime": [{"key": 247, "date": " 21/02/2021", "time_start": "19:15", "time_end": "19:25"}]}, {"key": 248, "name": " חנות שילב", "city": " ירושלים", "address": " ", "location": {"lat": 31.7515876, "lng": 35.1866151}, "datetime": [{"key": 248, "date": " 21/02/2021", "time_start": "19:00", "time_end": "20:00"}, {"key": 520, "date": " 21/02/2021", "time_start": "00:00", "time_end": "00:00"}, {"key": 4981, "date": " 12/02/2021", "time_start": "11:30", "time_end": "12:30"}]}, {"key": 249, "name": " כפר השעשועים וחנות בום", "city": " רמלה", "address": " ", "location": {"lat": 31.9257367, "lng": 34.8638844}, "datetime": [{"key": 249, "date": " 21/02/2021", "time_start": "19:00", "time_end": "20:00"}, {"key": 1502, "date": " 17/02/2021", "time_start": "17:00", "time_end": "18:00"}]}, {"key": 251, "name": " פיצה", "city": " נתניה", "address": " ככר העצמאות 3 ", "location": {"lat": 32.3307915, "lng": 34.8515517}, "datetime": [{"key": 251, "date": " 21/02/2021", "time_start": "19:00", "time_end": "20:00"}]}, {"key": 252, "name": " פרטנר", "city": " הרצליה", "address": "  8 ", "location": {"lat": 32.1651622, "lng": 34.8239938}, "datetime": [{"key": 252, "date": " 21/02/2021", "time_start": "19:00", "time_end": "19:15"}]}, {"key": 253, "name": " קיווי חנות לבגדי ילדים", "city": " רמלה", "address": "  1 ", "location": {"lat": 31.925572, "lng": 34.863966}, "datetime": [{"key": 253, "date": " 21/02/2021", "time_start": "19:00", "time_end": "20:00"}]}, {"key": 256, "name": " קניון G יבנה", "city": " יבנה", "address": " הקישון 7 ", "location": {"lat": 31.8862432, "lng": 34.7339604}, "datetime": [{"key": 256, "date": " 21/02/2021", "time_start": "18:35", "time_end": "19:00"}, {"key": 263, "date": " 21/02/2021", "time_start": "18:15", "time_end": "18:35"}]}, {"key": 257, "name": " R L עיבוד שבבי", "city": " מעלות-תרשיחא", "address": " ", "location": {"lat": 33.0215397, "lng": 35.2747769}, "datetime": [{"key": 257, "date": " 21/02/2021", "time_start": "18:30", "time_end": "23:30"}, {"key": 6334, "date": " 11/02/2021", "time_start": "06:30", "time_end": "18:30"}, {"key": 7297, "date": " 10/02/2021", "time_start": "06:30", "time_end": "18:30"}]}, {"key": 258, "name": " גימיני", "city": " באר שבע", "address": " ", "location": {"lat": 31.2452431, "lng": 34.8129287}, "datetime": [{"key": 258, "date": " 21/02/2021", "time_start": "18:30", "time_end": "19:30"}]}, {"key": 259, "name": " כפר השעשועים", "city": " פתח תקווה", "address": " גליס 57 ", "location": {"lat": 32.107475, "lng": 34.886728}, "datetime": [{"key": 259, "date": " 21/02/2021", "time_start": "18:30", "time_end": "19:30"}, {"key": 270, "date": " 21/02/2021", "time_start": "18:00", "time_end": "19:30"}]}, {"key": 260, "name": " מחסני השוק", "city": " באר שבע", "address": " שד ירושלים 10 ", "location": {"lat": 31.2457469, "lng": 34.7797246}, "datetime": [{"key": 260, "date": " 21/02/2021", "time_start": "18:30", "time_end": "19:00"}]}, {"key": 261, "name": " סטימצקי סוקולוב הרצליה", "city": " הרצליה", "address": " סוקולוב 33 ", "location": {"lat": 32.1673345, "lng": 34.8423006}, "datetime": [{"key": 261, "date": " 21/02/2021", "time_start": "18:30", "time_end": "19:30"}, {"key": 286, "date": " 21/02/2021", "time_start": "17:00", "time_end": "18:00"}]}, {"key": 262, "name": " קניון", "city": " חיפה", "address": "  54 ", "location": {"lat": 32.8089891, "lng": 35.0567625}, "datetime": [{"key": 262, "date": " 21/02/2021", "time_start": "18:30", "time_end": "20:00"}, {"key": 1106, "date": " 18/02/2021", "time_start": "14:00", "time_end": "15:00"}]}, {"key": 264, "name": " מנין חצרות", "city": " מודיעין עילית", "address": " שדרות יחזקאל  ", "location": {"lat": 31.93693829999999, "lng": 35.0390314}, "datetime": [{"key": 264, "date": " 21/02/2021", "time_start": "18:10", "time_end": "18:30"}, {"key": 275, "date": " 21/02/2021", "time_start": "17:30", "time_end": "17:50"}, {"key": 560, "date": " 20/02/2021", "time_start": "18:10", "time_end": "18:30"}, {"key": 568, "date": " 20/02/2021", "time_start": "17:30", "time_end": "17:50"}, {"key": 638, "date": " 20/02/2021", "time_start": "08:00", "time_end": "10:00"}, {"key": 670, "date": " 19/02/2021", "time_start": "18:10", "time_end": "18:30"}, {"key": 679, "date": " 19/02/2021", "time_start": "17:30", "time_end": "17:50"}, {"key": 985, "date": " 18/02/2021", "time_start": "18:10", "time_end": "18:30"}, {"key": 1009, "date": " 18/02/2021", "time_start": "17:30", "time_end": "17:50"}, {"key": 1346, "date": " 18/02/2021", "time_start": "07:30", "time_end": "08:30"}, {"key": 1610, "date": " 17/02/2021", "time_start": "13:00", "time_end": "13:10"}, {"key": 2020, "date": " 16/02/2021", "time_start": "19:00", "time_end": "20:00"}, {"key": 2232, "date": " 16/02/2021", "time_start": "13:00", "time_end": "13:15"}, {"key": 2839, "date": " 15/02/2021", "time_start": "17:00", "time_end": "20:00"}]}, {"key": 265, "name": " ביג אילת", "city": " אילת", "address": " הסתת 20 ", "location": {"lat": 29.5664539, "lng": 34.9596748}, "datetime": [{"key": 265, "date": " 21/02/2021", "time_start": "18:00", "time_end": "19:00"}]}, {"key": 266, "name": " זול סטוק קרני שומרון", "city": " קרני שומרון", "address": " ", "location": {"lat": 32.0983694, "lng": 34.9420726}, "datetime": [{"key": 266, "date": " 21/02/2021", "time_start": "18:00", "time_end": "18:30"}, {"key": 2679, "date": " 16/02/2021", "time_start": "00:00", "time_end": "00:00"}, {"key": 2786, "date": " 15/02/2021", "time_start": "18:00", "time_end": "18:30"}, {"key": 2906, "date": " 15/02/2021", "time_start": "15:00", "time_end": "19:00"}, {"key": 3724, "date": " 14/02/2021", "time_start": "15:00", "time_end": "19:00"}]}, {"key": 267, "name": " חנות תחפושות ערוץ הילדים", "city": " פרדס חנה-כרכור", "address": " דרך הבנים 12 ", "location": {"lat": 32.4745949, "lng": 34.9724183}, "datetime": [{"key": 267, "date": " 21/02/2021", "time_start": "18:00", "time_end": "19:00"}]}, {"key": 268, "name": " כללית גנים", "city": " נתיבות", "address": " גני טל 2 ", "location": {"lat": 31.4168126, "lng": 34.5719177}, "datetime": [{"key": 268, "date": " 21/02/2021", "time_start": "18:00", "time_end": "18:15"}, {"key": 2065, "date": " 16/02/2021", "time_start": "17:00", "time_end": "19:00"}, {"key": 6392, "date": " 11/02/2021", "time_start": "00:00", "time_end": "00:00"}, {"key": 6485, "date": " 10/02/2021", "time_start": "20:00", "time_end": "21:00"}]}, {"key": 269, "name": " מחסני להב", "city": " באר שבע", "address": "  125 ", "location": {"lat": 31.250541, "lng": 34.7709319}, "datetime": [{"key": 269, "date": " 21/02/2021", "time_start": "18:00", "time_end": "19:00"}, {"key": 1020, "date": " 18/02/2021", "time_start": "17:00", "time_end": "19:00"}, {"key": 2189, "date": " 16/02/2021", "time_start": "14:00", "time_end": "15:00"}, {"key": 3862, "date": " 14/02/2021", "time_start": "12:30", "time_end": "14:00"}, {"key": 5421, "date": " 11/02/2021", "time_start": "20:30", "time_end": "21:00"}, {"key": 6470, "date": " 10/02/2021", "time_start": "21:00", "time_end": "21:15"}, {"key": 6772, "date": " 10/02/2021", "time_start": "14:00", "time_end": "16:00"}, {"key": 6856, "date": " 10/02/2021", "time_start": "12:00", "time_end": "12:30"}]}, {"key": 271, "name": " מרפאה כללית ב", "city": " אופקים", "address": " שד הרצל  ", "location": {"lat": 31.3102462, "lng": 34.6208312}, "datetime": [{"key": 271, "date": " 21/02/2021", "time_start": "18:00", "time_end": "19:00"}, {"key": 2275, "date": " 16/02/2021", "time_start": "11:40", "time_end": "12:00"}]}, {"key": 272, "name": " מתחם לבדיקת קורונה", "city": " באר שבע", "address": " הרצל 91 ", "location": {"lat": 31.2431013, "lng": 34.7910234}, "datetime": [{"key": 272, "date": " 21/02/2021", "time_start": "18:00", "time_end": "19:00"}]}, {"key": 273, "name": " סופרפארם", "city": " הרצליה", "address": " סוקולוב 25 ", "location": {"lat": 32.1673997, "lng": 34.841295}, "datetime": [{"key": 273, "date": " 21/02/2021", "time_start": "18:00", "time_end": "18:30"}, {"key": 334, "date": " 21/02/2021", "time_start": "14:50", "time_end": "15:10"}]}, {"key": 274, "name": " הפיראט האדום", "city": " באר שבע", "address": " דרך חברון 21 ", "location": {"lat": 31.2435075, "lng": 34.8130605}, "datetime": [{"key": 274, "date": " 21/02/2021", "time_start": "17:30", "time_end": "19:00"}]}, {"key": 276, "name": " מקס סטוק", "city": " נתניה", "address": " ", "location": {"lat": 32.3118314, "lng": 34.8745215}, "datetime": [{"key": 276, "date": " 21/02/2021", "time_start": "17:30", "time_end": "19:30"}, {"key": 1597, "date": " 17/02/2021", "time_start": "13:15", "time_end": "13:45"}, {"key": 2917, "date": " 15/02/2021", "time_start": "15:00", "time_end": "15:30"}, {"key": 4271, "date": " 14/02/2021", "time_start": "07:15", "time_end": "13:50"}]}, {"key": 277, "name": " מקס סטוק", "city": " ראשון לציון", "address": "  20 ", "location": {"lat": 31.9638524, "lng": 34.8051244}, "datetime": [{"key": 277, "date": " 21/02/2021", "time_start": "17:30", "time_end": "19:00"}, {"key": 2108, "date": " 16/02/2021", "time_start": "16:00", "time_end": "17:00"}]}, {"key": 278, "name": " סופר אושר עד בית שמש", "city": " בית שמש", "address": " הגליל 1 ", "location": {"lat": 31.7476343, "lng": 34.9927211},