[{"key": 0, "name": " אופטיקה הלפרין", "city": " אשקלון", "address": " ", "location": {"lat": 31.6604711, "lng": 34.5894838}, "datetime": [{"key": 0, "date": " 27/02/2021", "time_start": "13:00", "time_end": "13:30"}]}, {"key": 1, "name": " סורוקה", "city": " באר שבע", "address": "  151 ", "location": {"lat": 31.2580633, "lng": 34.7994009}, "datetime": [{"key": 1, "date": " 27/02/2021", "time_start": "08:00", "time_end": "13:00"}, {"key": 4, "date": " 26/02/2021", "time_start": "14:30", "time_end": "14:50"}, {"key": 120, "date": " 25/02/2021", "time_start": "00:00", "time_end": "00:00"}, {"key": 243, "date": " 24/02/2021", "time_start": "10:00", "time_end": "23:59"}, {"key": 373, "date": " 24/02/2021", "time_start": "00:00", "time_end": "00:00"}, {"key": 535, "date": " 23/02/2021", "time_start": "14:00", "time_end": "23:00"}, {"key": 786, "date": " 23/02/2021", "time_start": "00:00", "time_end": "00:00"}, {"key": 832, "date": " 22/02/2021", "time_start": "19:00", "time_end": "22:00"}, {"key": 987, "date": " 22/02/2021", "time_start": "14:00", "time_end": "23:00"}, {"key": 1647, "date": " 21/02/2021", "time_start": "14:00", "time_end": "23:00"}, {"key": 1775, "date": " 21/02/2021", "time_start": "10:00", "time_end": "18:00"}, {"key": 1825, "date": " 21/02/2021", "time_start": "08:45", "time_end": "10:30"}, {"key": 2047, "date": " 21/02/2021", "time_start": "03:00", "time_end": "08:00"}, {"key": 2095, "date": " 21/02/2021", "time_start": "00:00", "time_end": "00:00"}, {"key": 2227, "date": " 20/02/2021", "time_start": "14:00", "time_end": "23:00"}, {"key": 3044, "date": " 18/02/2021", "time_start": "14:00", "time_end": "23:00"}, {"key": 3666, "date": " 17/02/2021", "time_start": "14:00", "time_end": "23:00"}, {"key": 4186, "date": " 16/02/2021", "time_start": "19:00", "time_end": "23:59"}, {"key": 4364, "date": " 16/02/2021", "time_start": "14:00", "time_end": "23:00"}, {"key": 4936, "date": " 16/02/2021", "time_start": "00:00", "time_end": "20:00"}, {"key": 5083, "date": " 15/02/2021", "time_start": "17:00", "time_end": "23:59"}, {"key": 5209, "date": " 15/02/2021", "time_start": "14:00", "time_end": "23:00"}, {"key": 5314, "date": " 15/02/2021", "time_start": "11:00", "time_end": "12:00"}, {"key": 5673, "date": " 15/02/2021", "time_start": "07:00", "time_end": "17:00"}, {"key": 6027, "date": " 14/02/2021", "time_start": "14:30", "time_end": "20:20"}, {"key": 6058, "date": " 14/02/2021", "time_start": "14:00", "time_end": "23:00"}, {"key": 6374, "date": " 14/02/2021", "time_start": "08:30", "time_end": "16:00"}, {"key": 6496, "date": " 14/02/2021", "time_start": "08:00", "time_end": "12:00"}, {"key": 6550, "date": " 14/02/2021", "time_start": "07:30", "time_end": "16:30"}, {"key": 6610, "date": " 14/02/2021", "time_start": "07:00", "time_end": "17:00"}]}, {"key": 2, "name": " בית כנסת משכן ניסים", "city": " טבריה", "address": " ", "location": {"lat": 32.7824776, "lng": 35.5391389}, "datetime": [{"key": 2, "date": " 27/02/2021", "time_start": "05:00", "time_end": "07:30"}, {"key": 28, "date": " 25/02/2021", "time_start": "17:00", "time_end": "18:30"}, {"key": 2366, "date": " 20/02/2021", "time_start": "05:00", "time_end": "07:30"}, {"key": 2422, "date": " 19/02/2021", "time_start": "17:00", "time_end": "18:30"}]}, {"key": 3, "name": " לאומית מתחם חיסונים", "city": " חיפה", "address": "  2 ", "location": {"lat": 32.7940463, "lng": 34.989571}, "datetime": [{"key": 3, "date": " 26/02/2021", "time_start": "17:45", "time_end": "18:30"}, {"key": 3155, "date": " 18/02/2021", "time_start": "10:00", "time_end": "12:00"}, {"key": 3738, "date": " 17/02/2021", "time_start": "11:00", "time_end": "11:15"}, {"key": 6931, "date": " 13/02/2021", "time_start": "10:05", "time_end": "10:10"}]}, {"key": 5, "name": " בריאותא באר שבע", "city": " באר שבע", "address": " דרך חברון 21 ", "location": {"lat": 31.24797569999999, "lng": 34.8119079}, "datetime": [{"key": 5, "date": " 26/02/2021", "time_start": "14:15", "time_end": "15:15"}, {"key": 5257, "date": " 15/02/2021", "time_start": "12:00", "time_end": "12:05"}, {"key": 6741, "date": " 13/02/2021", "time_start": "21:00", "time_end": "23:30"}]}, {"key": 6, "name": " תחנת קורונה", "city": " ירושלים", "address": " ", "location": {"lat": 31.768319, "lng": 35.21371}, "datetime": [{"key": 6, "date": " 26/02/2021", "time_start": "14:00", "time_end": "14:15"}, {"key": 26, "date": " 25/02/2021", "time_start": "18:00", "time_end": "18:15"}, {"key": 48, "date": " 25/02/2021", "time_start": "14:15", "time_end": "14:30"}, {"key": 54, "date": " 25/02/2021", "time_start": "14:00", "time_end": "14:30"}, {"key": 64, "date": " 25/02/2021", "time_start": "12:00", "time_end": "12:30"}, {"key": 66, "date": " 25/02/2021", "time_start": "11:30", "time_end": "13:00"}, {"key": 76, "date": " 25/02/2021", "time_start": "10:30", "time_end": "11:00"}, {"key": 81, "date": " 25/02/2021", "time_start": "09:30", "time_end": "10:00"}, {"key": 218, "date": " 24/02/2021", "time_start": "12:00", "time_end": "12:30"}, {"key": 219, "date": " 24/02/2021", "time_start": "12:00", "time_end": "12:30"}, {"key": 521, "date": " 23/02/2021", "time_start": "14:30", "time_end": "15:00"}, {"key": 522, "date": " 23/02/2021", "time_start": "14:30", "time_end": "14:40"}, {"key": 589, "date": " 23/02/2021", "time_start": "10:30", "time_end": "11:00"}, {"key": 632, "date": " 23/02/2021", "time_start": "08:30", "time_end": "08:45"}, {"key": 705, "date": " 23/02/2021", "time_start": "07:50", "time_end": "08:00"}, {"key": 969, "date": " 22/02/2021", "time_start": "14:30", "time_end": "15:00"}, {"key": 992, "date": " 22/02/2021", "time_start": "14:00", "time_end": "14:15"}, {"key": 1071, "date": " 22/02/2021", "time_start": "10:45", "time_end": "11:15"}, {"key": 1222, "date": " 22/02/2021", "time_start": "08:00", "time_end": "12:00"}, {"key": 1489, "date": " 21/02/2021", "time_start": "18:00", "time_end": "18:15"}, {"key": 1590, "date": " 21/02/2021", "time_start": "15:30", "time_end": "16:00"}, {"key": 1629, "date": " 21/02/2021", "time_start": "14:30", "time_end": "15:00"}, {"key": 1678, "date": " 21/02/2021", "time_start": "13:00", "time_end": "13:15"}, {"key": 1822, "date": " 21/02/2021", "time_start": "09:00", "time_end": "09:30"}, {"key": 2116, "date": " 21/02/2021", "time_start": "00:00", "time_end": "00:00"}, {"key": 2171, "date": " 20/02/2021", "time_start": "18:00", "time_end": "19:00"}, {"key": 2202, "date": " 20/02/2021", "time_start": "15:30", "time_end": "16:00"}, {"key": 2230, "date": " 20/02/2021", "time_start": "14:00", "time_end": "14:15"}, {"key": 2247, "date": " 20/02/2021", "time_start": "13:00", "time_end": "13:15"}, {"key": 2248, "date": " 20/02/2021", "time_start": "13:00", "time_end": "13:30"}, {"key": 2538, "date": " 19/02/2021", "time_start": "11:30", "time_end": "12:50"}, {"key": 3514, "date": " 17/02/2021", "time_start": "19:00", "time_end": "20:00"}, {"key": 3806, "date": " 17/02/2021", "time_start": "09:30", "time_end": "09:45"}, {"key": 3823, "date": " 17/02/2021", "time_start": "09:00", "time_end": "13:00"}, {"key": 4120, "date": " 17/02/2021", "time_start": "00:00", "time_end": "23:59"}, {"key": 4158, "date": " 16/02/2021", "time_start": "21:30", "time_end": "22:00"}, {"key": 4262, "date": " 16/02/2021", "time_start": "16:30", "time_end": "17:00"}, {"key": 4523, "date": " 16/02/2021", "time_start": "10:00", "time_end": "22:00"}, {"key": 4752, "date": " 16/02/2021", "time_start": "08:00", "time_end": "08:30"}, {"key": 4926, "date": " 16/02/2021", "time_start": "00:00", "time_end": "23:59"}, {"key": 4973, "date": " 15/02/2021", "time_start": "20:20", "time_end": "23:59"}, {"key": 5253, "date": " 15/02/2021", "time_start": "12:30", "time_end": "12:45"}, {"key": 5363, "date": " 15/02/2021", "time_start": "10:00", "time_end": "20:00"}, {"key": 5377, "date": " 15/02/2021", "time_start": "10:00", "time_end": "10:15"}, {"key": 5378, "date": " 15/02/2021", "time_start": "10:00", "time_end": "10:30"}, {"key": 5439, "date": " 15/02/2021", "time_start": "09:00", "time_end": "15:30"}, {"key": 5637, "date": " 15/02/2021", "time_start": "07:00", "time_end": "23:00"}, {"key": 5740, "date": " 15/02/2021", "time_start": "00:00", "time_end": "07:00"}, {"key": 5742, "date": " 15/02/2021", "time_start": "00:00", "time_end": "00:00"}, {"key": 6073, "date": " 14/02/2021", "time_start": "13:40", "time_end": "14:00"}, {"key": 6178, "date": " 14/02/2021", "time_start": "12:00", "time_end": "12:10"}, {"key": 6268, "date": " 14/02/2021", "time_start": "10:00", "time_end": "22:00"}, {"key": 6564, "date": " 14/02/2021", "time_start": "07:00", "time_end": "23:00"}, {"key": 6939, "date": " 13/02/2021", "time_start": "10:00", "time_end": "22:00"}, {"key": 6996, "date": " 13/02/2021", "time_start": "07:00", "time_end": "23:00"}, {"key": 7021, "date": " 13/02/2021", "time_start": "00:00", "time_end": "07:00"}]}, {"key": 7, "name": " חניון אצטדיון כפר סבא", "city": " כפר סבא", "address": " בן יהודה 102 ", "location": {"lat": 32.1808053, "lng": 34.9268865}, "datetime": [{"key": 7, "date": " 26/02/2021", "time_start": "11:00", "time_end": "11:30"}, {"key": 8, "date": " 26/02/2021", "time_start": "10:00", "time_end": "10:30"}, {"key": 184, "date": " 24/02/2021", "time_start": "14:30", "time_end": "14:45"}, {"key": 225, "date": " 24/02/2021", "time_start": "11:00", "time_end": "11:30"}, {"key": 529, "date": " 23/02/2021", "time_start": "14:00", "time_end": "14:20"}, {"key": 594, "date": " 23/02/2021", "time_start": "10:00", "time_end": "10:31"}, {"key": 1045, "date": " 22/02/2021", "time_start": "11:30", "time_end": "11:40"}, {"key": 1704, "date": " 21/02/2021", "time_start": "11:40", "time_end": "12:00"}, {"key": 3589, "date": " 17/02/2021", "time_start": "16:00", "time_end": "16:30"}, {"key": 5101, "date": " 15/02/2021", "time_start": "16:30", "time_end": "17:00"}, {"key": 5384, "date": " 15/02/2021", "time_start": "09:30", "time_end": "10:00"}, {"key": 5408, "date": " 15/02/2021", "time_start": "09:00", "time_end": "10:00"}, {"key": 6160, "date": " 14/02/2021", "time_start": "12:00", "time_end": "12:41"}, {"key": 6202, "date": " 14/02/2021", "time_start": "11:00", "time_end": "12:00"}, {"key": 6221, "date": " 14/02/2021", "time_start": "10:31", "time_end": "11:00"}, {"key": 6234, "date": " 14/02/2021", "time_start": "10:26", "time_end": "11:00"}]}, {"key": 9, "name": " מתחם לבדיקת קורונה", "city": " קרית גת", "address": " שד גת  ", "location": {"lat": 31.61215799999999, "lng": 34.767487}, "datetime": [{"key": 9, "date": " 26/02/2021", "time_start": "10:00", "time_end": "11:30"}]}, {"key": 10, "name": " קופת חולים כללית", "city": " נצרת עילית", "address": " הגבעה 9 ", "location": {"lat": 32.7064137, "lng": 35.3187726}, "datetime": [{"key": 10, "date": " 26/02/2021", "time_start": "10:00", "time_end": "10:15"}]}, {"key": 11, "name": " קינג סטור", "city": " אום אל-פחם", "address": "  533 ", "location": {"lat": 32.5351427, "lng": 35.150433}, "datetime": [{"key": 11, "date": " 26/02/2021", "time_start": "10:00", "time_end": "11:30"}]}, {"key": 12, "name": " זול ובגדול", "city": " אשדוד", "address": " הרי גולן 12 ", "location": {"lat": 31.7810096, "lng": 34.6316017}, "datetime": [{"key": 12, "date": " 26/02/2021", "time_start": "09:30", "time_end": "09:50"}]}, {"key": 13, "name": " מחסני השוק", "city": " דימונה", "address": " ", "location": {"lat": 31.0596635, "lng": 35.02099870000001}, "datetime": [{"key": 13, "date": " 26/02/2021", "time_start": "09:30", "time_end": "12:00"}, {"key": 1694, "date": " 21/02/2021", "time_start": "12:00", "time_end": "13:00"}, {"key": 2603, "date": " 19/02/2021", "time_start": "10:00", "time_end": "12:00"}, {"key": 4276, "date": " 16/02/2021", "time_start": "16:00", "time_end": "18:00"}, {"key": 5228, "date": " 15/02/2021", "time_start": "13:00", "time_end": "14:00"}]}, {"key": 14, "name": " טוונטי פור סבן", "city": " קרית אונו", "address": " שלמה המלך 37 ", "location": {"lat": 32.0555788, "lng": 34.8633719}, "datetime": [{"key": 14, "date": " 26/02/2021", "time_start": "09:00", "time_end": "13:00"}, {"key": 226, "date": " 24/02/2021", "time_start": "11:00", "time_end": "17:30"}, {"key": 1058, "date": " 22/02/2021", "time_start": "11:00", "time_end": "19:00"}, {"key": 1720, "date": " 21/02/2021", "time_start": "11:00", "time_end": "20:00"}, {"key": 5325, "date": " 15/02/2021", "time_start": "10:50", "time_end": "11:31"}]}, {"key": 15, "name": " מרכז האישה", "city": " אום אל-פחם", "address": " ", "location": {"lat": 32.517055, "lng": 35.14855}, "datetime": [{"key": 15, "date": " 26/02/2021", "time_start": "08:30", "time_end": "10:00"}]}, {"key": 16, "name": " אושר עד", "city": " בית שמש", "address": " הגליל 1 ", "location": {"lat": 31.7476343, "lng": 34.9927211}, "datetime": [{"key": 16, "date": " 26/02/2021", "time_start": "08:00", "time_end": "09:00"}, {"key": 458, "date": " 23/02/2021", "time_start": "16:30", "time_end": "18:30"}, {"key": 1499, "date": " 21/02/2021", "time_start": "17:30", "time_end": "18:30"}, {"key": 2700, "date": " 19/02/2021", "time_start": "08:00", "time_end": "10:00"}, {"key": 3520, "date": " 17/02/2021", "time_start": "18:15", "time_end": "19:00"}, {"key": 3576, "date": " 17/02/2021", "time_start": "16:30", "time_end": "17:15"}, {"key": 3621, "date": " 17/02/2021", "time_start": "15:00", "time_end": "16:30"}, {"key": 3622, "date": " 17/02/2021", "time_start": "15:00", "time_end": "17:30"}, {"key": 6087, "date": " 14/02/2021", "time_start": "13:00", "time_end": "14:00"}, {"key": 6209, "date": " 14/02/2021", "time_start": "11:00", "time_end": "11:15"}, {"key": 6210, "date": " 14/02/2021", "time_start": "11:00", "time_end": "13:00"}]}, {"key": 17, "name": " המקום של תום", "city": " בית שמש", "address": " האומן 13 ", "location": {"lat": 31.7538335, "lng": 34.9964306}, "datetime": [{"key": 17, "date": " 26/02/2021", "time_start": "07:30", "time_end": "07:45"}]}, {"key": 18, "name": " משפחה קדושה", "city": " נצרת", "address": " ", "location": {"lat": 32.704898, "lng": 35.310839}, "datetime": [{"key": 18, "date": " 26/02/2021", "time_start": "07:30", "time_end": "15:00"}, {"key": 99, "date": " 25/02/2021", "time_start": "07:30", "time_end": "15:00"}, {"key": 320, "date": " 24/02/2021", "time_start": "07:30", "time_end": "00:00"}, {"key": 712, "date": " 23/02/2021", "time_start": "07:30", "time_end": "15:00"}, {"key": 1338, "date": " 22/02/2021", "time_start": "00:01", "time_end": "15:00"}, {"key": 1981, "date": " 21/02/2021", "time_start": "07:30", "time_end": "00:00"}]}, {"key": 19, "name": " עטרת שלמה", "city": " אלעד", "address": " אבטליון 58-60 ", "location": {"lat": 32.0465, "lng": 34.949872}, "datetime": [{"key": 19, "date": " 26/02/2021", "time_start": "07:30", "time_end": "08:30"}]}, {"key": 20, "name": " חברת מתג", "city": " אילת", "address": " ", "location": {"lat": 29.55272399999999, "lng": 34.9311899}, "datetime": [{"key": 20, "date": " 26/02/2021", "time_start": "07:00", "time_end": "17:00"}, {"key": 104, "date": " 25/02/2021", "time_start": "07:00", "time_end": "17:00"}, {"key": 326, "date": " 24/02/2021", "time_start": "07:00", "time_end": "17:00"}, {"key": 723, "date": " 23/02/2021", "time_start": "07:00", "time_end": "17:00"}, {"key": 1295, "date": " 22/02/2021", "time_start": "07:00", "time_end": "17:00"}, {"key": 1999, "date": " 21/02/2021", "time_start": "07:00", "time_end": "17:00"}]}, {"key": 21, "name": " חנות המפעל גידרון", "city": " חולון", "address": " השופטים 26 ", "location": {"lat": 32.0177273, "lng": 34.7988343}, "datetime": [{"key": 21, "date": " 26/02/2021", "time_start": "07:00", "time_end": "16:00"}, {"key": 105, "date": " 25/02/2021", "time_start": "07:00", "time_end": "16:00"}, {"key": 327, "date": " 24/02/2021", "time_start": "07:00", "time_end": "16:00"}, {"key": 724, "date": " 23/02/2021", "time_start": "07:00", "time_end": "16:00"}, {"key": 1296, "date": " 22/02/2021", "time_start": "07:00", "time_end": "16:00"}, {"key": 2075, "date": " 21/02/2021", "time_start": "00:00", "time_end": "00:00"}, {"key": 2782, "date": " 19/02/2021", "time_start": "05:15", "time_end": "15:30"}]}, {"key": 22, "name": " מלון ישרוטל ים המלח", "city": " לא רשום", "address": " ", "location": {"lat": 31.1929883, "lng": 35.3610687}, "datetime": [{"key": 22, "date": " 26/02/2021", "time_start": "07:00", "time_end": "10:45"}, {"key": 43, "date": " 25/02/2021", "time_start": "15:00", "time_end": "23:00"}, {"key": 328, "date": " 24/02/2021", "time_start": "07:00", "time_end": "14:00"}]}, {"key": 23, "name": " חנות מקיאטו תחנת פז תנובות", "city": " תנובות", "address": " ", "location": {"lat": 32.3133799, "lng": 34.9643929}, "datetime": [{"key": 23, "date": " 26/02/2021", "time_start": "00:00", "time_end": "07:15"}, {"key": 117, "date": " 25/02/2021", "time_start": "00:00", "time_end": "06:30"}, {"key": 121, "date": " 24/02/2021", "time_start": "23:00", "time_end": "23:59"}, {"key": 517, "date": " 23/02/2021", "time_start": "14:30", "time_end": "23:00"}, {"key": 1361, "date": " 22/02/2021", "time_start": "00:00", "time_end": "06:00"}, {"key": 1626, "date": " 21/02/2021", "time_start": "14:30", "time_end": "23:00"}]}, {"key": 24, "name": " טיילת קרית ים", "city": " קרית ים", "address": " ", "location": {"lat": 32.848563, "lng": 35.062013}, "datetime": [{"key": 24, "date": " 25/02/2021", "time_start": "19:00", "time_end": "21:00"}, {"key": 123, "date": " 24/02/2021", "time_start": "20:30", "time_end": "21:30"}, {"key": 210, "date": " 24/02/2021", "time_start": "12:00", "time_end": "13:30"}, {"key": 405, "date": " 23/02/2021", "time_start": "19:00", "time_end": "21:00"}, {"key": 566, "date": " 23/02/2021", "time_start": "12:00", "time_end": "13:30"}, {"key": 826, "date": " 22/02/2021", "time_start": "19:00", "time_end": "21:00"}, {"key": 1027, "date": " 22/02/2021", "time_start": "12:00", "time_end": "13:30"}, {"key": 1439, "date": " 21/02/2021", "time_start": "19:00", "time_end": "21:00"}, {"key": 1692, "date": " 21/02/2021", "time_start": "12:00", "time_end": "13:30"}, {"key": 2147, "date": " 20/02/2021", "time_start": "19:00", "time_end": "21:00"}, {"key": 2401, "date": " 19/02/2021", "time_start": "19:00", "time_end": "21:00"}]}, {"key": 25, "name": " יוחננוף", "city": " ראשון לציון", "address": " משורר השואה 15 ", "location": {"lat": 31.9828662, "lng": 34.7923622}, "datetime": [{"key": 25, "date": " 25/02/2021", "time_start": "18:00", "time_end": "20:00"}, {"key": 2485, "date": " 19/02/2021", "time_start": "13:00", "time_end": "15:30"}, {"key": 4318, "date": " 16/02/2021", "time_start": "15:00", "time_end": "16:45"}]}, {"key": 27, "name": " ויקטורי", "city": " פתח תקווה", "address": " בר כוכבא 16 ", "location": {"lat": 32.09148020000001, "lng": 34.8858244}, "datetime": [{"key": 27, "date": " 25/02/2021", "time_start": "17:30", "time_end": "18:30"}]}, {"key": 29, "name": " נחלת דוד", "city": " אשקלון", "address": " ", "location": {"lat": 31.6692619, "lng": 34.5675306}, "datetime": [{"key": 29, "date": " 25/02/2021", "time_start": "17:00", "time_end": "19:00"}, {"key": 274, "date": " 24/02/2021", "time_start": "08:10", "time_end": "09:05"}, {"key": 636, "date": " 23/02/2021", "time_start": "08:15", "time_end": "09:05"}]}, {"key": 30, "name": " שופרסל", "city": " באר שבע", "address": " האורגים 1 ", "location": {"lat": 31.254278, "lng": 34.81486599999999}, "datetime": [{"key": 30, "date": " 25/02/2021", "time_start": "17:00", "time_end": "17:30"}]}, {"key": 31, "name": " חנות", "city": " אילת", "address": " שד ששת הימים 320 ", "location": {"lat": 29.5435952, "lng": 34.9305422}, "datetime": [{"key": 31, "date": " 25/02/2021", "time_start": "16:30", "time_end": "17:00"}]}, {"key": 32, "name": " דרייב אין עשה בדיקה", "city": " אילת", "address": " ", "location": {"lat": 29.557669, "lng": 34.951925}, "datetime": [{"key": 32, "date": " 25/02/2021", "time_start": "16:00", "time_end": "16:20"}, {"key": 40, "date": " 25/02/2021", "time_start": "15:00", "time_end": "15:20"}, {"key": 150, "date": " 24/02/2021", "time_start": "17:00", "time_end": "17:30"}, {"key": 173, "date": " 24/02/2021", "time_start": "15:30", "time_end": "16:00"}, {"key": 178, "date": " 24/02/2021", "time_start": "15:00", "time_end": "15:30"}, {"key": 490, "date": " 23/02/2021", "time_start": "15:05", "time_end": "15:40"}, {"key": 2125, "date": " 20/02/2021", "time_start": "20:40", "time_end": "21:20"}, {"key": 2132, "date": " 20/02/2021", "time_start": "20:00", "time_end": "20:30"}, {"key": 2204, "date": " 20/02/2021", "time_start": "15:00", "time_end": "15:30"}, {"key": 2844, "date": " 18/02/2021", "time_start": "20:30", "time_end": "21:00"}, {"key": 2960, "date": " 18/02/2021", "time_start": "16:00", "time_end": "16:30"}, {"key": 3546, "date": " 17/02/2021", "time_start": "17:00", "time_end": "17:30"}, {"key": 3610, "date": " 17/02/2021", "time_start": "15:30", "time_end": "16:00"}, {"key": 5052, "date": " 15/02/2021", "time_start": "17:30", "time_end": "17:50"}, {"key": 5814, "date": " 14/02/2021", "time_start": "21:30", "time_end": "22:30"}, {"key": 5887, "date": " 14/02/2021", "time_start": "17:30", "time_end": "18:30"}, {"key": 6734, "date": " 13/02/2021", "time_start": "23:00", "time_end": "23:59"}, {"key": 6840, "date": " 13/02/2021", "time_start": "15:30", "time_end": "15:50"}]}, {"key": 33, "name": " סניף ראשי דואר", "city": " דימונה", "address": "  5 ", "location": {"lat": 31.0650359, "lng": 35.0344661}, "datetime": [{"key": 33, "date": " 25/02/2021", "time_start": "16:00", "time_end": "18:00"}]}, {"key": 34, "name": " יוחננוף מחלקת משקאות", "city": " מבקיעים", "address": " ", "location": {"lat": 31.8112446, "lng": 34.6540808}, "datetime": [{"key": 34, "date": " 25/02/2021", "time_start": "15:50", "time_end": "16:50"}, {"key": 65, "date": " 25/02/2021", "time_start": "11:30", "time_end": "12:30"}, {"key": 3495, "date": " 17/02/2021", "time_start": "21:30", "time_end": "23:00"}]}, {"key": 35, "name": " איקאה", "city": " ראשון לציון", "address": " היוזמה 1 ", "location": {"lat": 31.95155999999999, "lng": 34.771261}, "datetime": [{"key": 35, "date": " 25/02/2021", "time_start": "15:30", "time_end": "17:00"}, {"key": 558, "date": " 23/02/2021", "time_start": "12:00", "time_end": "14:00"}, {"key": 1335, "date": " 22/02/2021", "time_start": "05:00", "time_end": "13:00"}, {"key": 1539, "date": " 21/02/2021", "time_start": "16:30", "time_end": "19:00"}, {"key": 2043, "date": " 21/02/2021", "time_start": "05:00", "time_end": "13:00"}]}, {"key": 36, "name": " יוספטל", "city": " אילת", "address": " דרך יותם  ", "location": {"lat": 29.5544708, "lng": 34.9403539}, "datetime": [{"key": 36, "date": " 25/02/2021", "time_start": "15:30", "time_end": "16:00"}, {"key": 1785, "date": " 21/02/2021", "time_start": "09:40", "time_end": "10:00"}]}, {"key": 37, "name": " סופר", "city": " כפר סבא", "address": " גלגלי פלדה 5 ", "location": {"lat": 32.1728401, "lng": 34.9275245}, "datetime": [{"key": 37, "date": " 25/02/2021", "time_start": "15:30", "time_end": "18:30"}, {"key": 371, "date": " 24/02/2021", "time_start": "00:00", "time_end": "00:00"}, {"key": 450, "date": " 23/02/2021", "time_start": "17:00", "time_end": "17:30"}, {"key": 1261, "date": " 22/02/2021", "time_start": "08:00", "time_end": "08:30"}, {"key": 2530, "date": " 19/02/2021", "time_start": "12:00", "time_end": "13:00"}, {"key": 2975, "date": " 18/02/2021", "time_start": "16:00", "time_end": "16:30"}]}, {"key": 38, "name": " איכילוב בניין סורובסקי", "city": " תל אביב - יפו", "address": "  6 ", "location": {"lat": 32.0789202, "lng": 34.7892824}, "datetime": [{"key": 38, "date": " 25/02/2021", "time_start": "15:00", "time_end": "23:00"}, {"key": 493, "date": " 23/02/2021", "time_start": "15:00", "time_end": "23:00"}, {"key": 941, "date": " 22/02/2021", "time_start": "15:00", "time_end": "22:00"}, {"key": 2203, "date": " 20/02/2021", "time_start": "15:00", "time_end": "23:00"}, {"key": 2444, "date": " 19/02/2021", "time_start": "15:00", "time_end": "23:00"}, {"key": 2995, "date": " 18/02/2021", "time_start": "15:00", "time_end": "23:00"}]}, {"key": 39, "name": " חנות", "city": " אילת", "address": " דרך יותם 43 ", "location": {"lat": 29.5552341, "lng": 34.9422882}, "datetime": [{"key": 39, "date": " 25/02/2021", "time_start": "15:00", "time_end": "17:00"}]}, {"key": 41, "name": " יינות ביתן", "city": " אשקלון", "address": " שד ירושלים 5 ", "location": {"lat": 31.6778055, "lng": 34.5753127}, "datetime": [{"key": 41, "date": " 25/02/2021", "time_start": "15:00", "time_end": "15:20"}, {"key": 3030, "date": " 18/02/2021", "time_start": "14:00", "time_end": "14:30"}]}, {"key": 42, "name": " כדורסל", "city": " חיפה", "address": " פיק''א 69 ", "location": {"lat": 32.78776610000001, "lng": 34.9970753}, "datetime": [{"key": 42, "date": " 25/02/2021", "time_start": "15:00", "time_end": "19:00"}, {"key": 116, "date": " 25/02/2021", "time_start": "00:00", "time_end": "00:00"}, {"key": 359, "date": " 24/02/2021", "time_start": "00:00", "time_end": "00:00"}, {"key": 499, "date": " 23/02/2021", "time_start": "15:00", "time_end": "19:00"}, {"key": 950, "date": " 22/02/2021", "time_start": "15:00", "time_end": "19:00"}, {"key": 1356, "date": " 22/02/2021", "time_start": "00:00", "time_end": "00:00"}, {"key": 1377, "date": " 22/02/2021", "time_start": "00:00", "time_end": "00:00"}, {"key": 2070, "date": " 21/02/2021", "time_start": "00:00", "time_end": "00:00"}, {"key": 2374, "date": " 20/02/2021", "time_start": "00:00", "time_end": "00:00"}, {"key": 2383, "date": " 20/02/2021", "time_start": "00:00", "time_end": "00:00"}, {"key": 2448, "date": " 19/02/2021", "time_start": "15:00", "time_end": "17:00"}, {"key": 2798, "date": " 19/02/2021", "time_start": "00:00", "time_end": "00:00"}, {"key": 3454, "date": " 18/02/2021", "time_start": "00:00", "time_end": "00:00"}, {"key": 3627, "date": " 17/02/2021", "time_start": "15:00", "time_end": "17:00"}]}, {"key": 44, "name": " מעדני מניה אשקלון", "city": " אשקלון", "address": " העבודה 12 ", "location": {"lat": 31.6661813, "lng": 34.5918859}, "datetime": [{"key": 44, "date": " 25/02/2021", "time_start": "15:00", "time_end": "16:00"}]}, {"key": 45, "name": " פוקס נתניה", "city": " נתניה", "address": "  5 ", "location": {"lat": 32.2788144, "lng": 34.8470684}, "datetime": [{"key": 45, "date": " 25/02/2021", "time_start": "15:00", "time_end": "16:00"}, {"key": 5897, "date": " 14/02/2021", "time_start": "17:00", "time_end": "17:15"}]}, {"key": 46, "name": " פלאפליה", "city": " חיפה", "address": " ", "location": {"lat": 32.8174619, "lng": 34.994252}, "datetime": [{"key": 46, "date": " 25/02/2021", "time_start": "15:00", "time_end": "16:00"}]}, {"key": 47, "name": " קניון הזהב ראשלצ", "city": " ראשון לציון", "address": " סחרוב דוד 21 ", "location": {"lat": 31.9913925, "lng": 34.774242}, "datetime": [{"key": 47, "date": " 25/02/2021", "time_start": "15:00", "time_end": "15:45"}, {"key": 390, "date": " 23/02/2021", "time_start": "20:30", "time_end": "22:00"}, {"key": 485, "date": " 23/02/2021", "time_start": "15:30", "time_end": "18:00"}, {"key": 537, "date": " 23/02/2021", "time_start": "14:00", "time_end": "19:00"}, {"key": 810, "date": " 22/02/2021", "time_start": "20:00", "time_end": "21:30"}, {"key": 1399, "date": " 21/02/2021", "time_start": "21:30", "time_end": "22:00"}, {"key": 1405, "date": " 21/02/2021", "time_start": "21:00", "time_end": "22:00"}, {"key": 1615, "date": " 21/02/2021", "time_start": "15:00", "time_end": "16:00"}]}, {"key": 49, "name": " גן שעשועים", "city": " אשקלון", "address": " נווה שלום 13 ", "location": {"lat": 31.66287059999999, "lng": 34.5781088}, "datetime": [{"key": 49, "date": " 25/02/2021", "time_start": "14:00", "time_end": "15:00"}]}, {"key": 50, "name": " גרנד קפה", "city": " תל אביב - יפו", "address": " אינשטיין 40 ", "location": {"lat": 32.1122524, "lng": 34.7950255}, "datetime": [{"key": 50, "date": " 25/02/2021", "time_start": "14:00", "time_end": "00:00"}, {"key": 527, "date": " 23/02/2021", "time_start": "14:00", "time_end": "23:00"}, {"key": 1637, "date": " 21/02/2021", "time_start": "14:00", "time_end": "00:00"}, {"key": 2221, "date": " 20/02/2021", "time_start": "14:00", "time_end": "00:00"}]}, {"key": 51, "name": " מוקד טכני סלקום", "city": " נתניה", "address": " הגביש 10 ", "location": {"lat": 32.2901651, "lng": 34.8638693}, "datetime": [{"key": 51, "date": " 25/02/2021", "time_start": "14:00", "time_end": "21:00"}]}, {"key": 52, "name": " סופר פארם", "city": " נתניה", "address": "  1 ", "location": {"lat": 32.2780849, "lng": 34.847364}, "datetime": [{"key": 52, "date": " 25/02/2021", "time_start": "14:00", "time_end": "14:20"}]}, {"key": 53, "name": " שופרסל דיל אקסטרה נתניה", "city": " נתניה", "address": " המלאכה 32 ", "location": {"lat": 32.2841486, "lng": 34.8597587}, "datetime": [{"key": 53, "date": " 25/02/2021", "time_start": "14:00", "time_end": "15:00"}, {"key": 838, "date": " 22/02/2021", "time_start": "19:00", "time_end": "21:00"}]}, {"key": 55, "name": " מאמא מיה", "city": " פתח תקווה", "address": " מכנס גד 4 ", "location": {"lat": 32.0760498, "lng": 34.8850627}, "datetime": [{"key": 55, "date": " 25/02/2021", "time_start": "13:30", "time_end": "13:50"}]}, {"key": 56, "name": " היפר דודו", "city": " פתח תקווה", "address": " סלור 7 ", "location": {"lat": 32.089433, "lng": 34.8825601}, "datetime": [{"key": 56, "date": " 25/02/2021", "time_start": "13:00", "time_end": "13:20"}, {"key": 1514, "date": " 21/02/2021", "time_start": "17:00", "time_end": "20:00"}]}, {"key": 57, "name": " מקומות ציבוריים נוספים סופר או", "city": " יבנה", "address": " הקישון 9 ", "location": {"lat": 31.8860703, "lng": 34.7338038}, "datetime": [{"key": 57, "date": " 25/02/2021", "time_start": "13:00", "time_end": "15:00"}, {"key": 271, "date": " 24/02/2021", "time_start": "08:30", "time_end": "09:30"}, {"key": 2611, "date": " 19/02/2021", "time_start": "10:00", "time_end": "11:00"}, {"key": 6110, "date": " 14/02/2021", "time_start": "13:00", "time_end": "13:30"}, {"key": 6311, "date": " 14/02/2021", "time_start": "09:10", "time_end": "10:00"}, {"key": 6353, "date": " 14/02/2021", "time_start": "09:00", "time_end": "10:00"}]}, {"key": 58, "name": " מקס סטוק", "city": " נתניה", "address": " ", "location": {"lat": 32.3118314, "lng": 34.8745215}, "datetime": [{"key": 58, "date": " 25/02/2021", "time_start": "13:00", "time_end": "13:20"}, {"key": 1497, "date": " 21/02/2021", "time_start": "17:30", "time_end": "19:30"}, {"key": 1770, "date": " 21/02/2021", "time_start": "10:00", "time_end": "10:30"}, {"key": 3677, "date": " 17/02/2021", "time_start": "13:15", "time_end": "13:45"}, {"key": 5163, "date": " 15/02/2021", "time_start": "15:00", "time_end": "15:30"}]}, {"key": 59, "name": " פארק נחל חדרה", "city": " חדרה", "address": " ", "location": {"lat": 32.4647762, "lng": 34.8901209}, "datetime": [{"key": 59, "date": " 25/02/2021", "time_start": "13:00", "time_end": "16:30"}]}, {"key": 60, "name": " קניון עיר ימים נתניה", "city": " נתניה", "address": " ברמן בני 2 ", "location": {"lat": 32.2791426, "lng": 34.8470474}, "datetime": [{"key": 60, "date": " 25/02/2021", "time_start": "13:00", "time_end": "13:30"}, {"key": 586, "date": " 23/02/2021", "time_start": "11:00", "time_end": "12:00"}, {"key": 835, "date": " 22/02/2021", "time_start": "19:00", "time_end": "20:00"}, {"key": 1577, "date": " 21/02/2021", "time_start": "16:00", "time_end": "18:00"}, {"key": 5963, "date": " 14/02/2021", "time_start": "16:00", "time_end": "17:00"}]}, {"key": 61, "name": " מקומות ציבוריים נוספים סופר או", "city": " בני ברק", "address": " אבני נזר 3 ", "location": {"lat": 32.0828307, "lng": 34.8425575}, "datetime": [{"key": 61, "date": " 25/02/2021", "time_start": "12:30", "time_end": "13:30"}]}, {"key": 62, "name": " השנציליה", "city": " נשר", "address": " דרך בר יהודה 96 ", "location": {"lat": 32.7704924, "lng": 35.0475465}, "datetime": [{"key": 62, "date": " 25/02/2021", "time_start": "12:00", "time_end": "13:00"}]}, {"key": 63, "name": " שוק", "city": " חיפה", "address": " סירקין 35 ", "location": {"lat": 32.80882250000001, "lng": 35.0027415}, "datetime": [{"key": 63, "date": " 25/02/2021", "time_start": "12:00", "time_end": "13:00"}]}, {"key": 67, "name": " תכשיטי הנסיכה", "city": " ראשון לציון", "address": " סחרוב דוד 21 ", "location": {"lat": 31.989917, "lng": 34.7743488}, "datetime": [{"key": 67, "date": " 25/02/2021", "time_start": "11:30", "time_end": "12:00"}]}, {"key": 68, "name": " מקומות ציבוריים נוספים חנויות", "city": " בני ברק", "address": " שמשון הגבור 7 ", "location": {"lat": 32.0806874, "lng": 34.8407821}, "datetime": [{"key": 68, "date": " 25/02/2021", "time_start": "11:15", "time_end": "11:30"}]}, {"key": 69, "name": " מקומות ציבוריים נוספים חנויות", "city": " בני ברק", "address": " שלמה המלך 16 ", "location": {"lat": 32.0789258, "lng": 34.8399478}, "datetime": [{"key": 69, "date": " 25/02/2021", "time_start": "11:00", "time_end": "11:15"}]}, {"key": 70, "name": " קניון השרון נתניה", "city": " נתניה", "address": " הרצל 65 ", "location": {"lat": 32.3268688, "lng": 34.8622456}, "datetime": [{"key": 70, "date": " 25/02/2021", "time_start": "11:00", "time_end": "14:00"}, {"key": 1021, "date": " 22/02/2021", "time_start": "12:30", "time_end": "15:00"}, {"key": 1078, "date": " 22/02/2021", "time_start": "10:30", "time_end": "11:30"}, {"key": 2861, "date": " 18/02/2021", "time_start": "19:45", "time_end": "20:30"}, {"key": 5317, "date": " 15/02/2021", "time_start": "11:00", "time_end": "11:30"}]}, {"key": 71, "name": " ציפורניים טטיאנה", "city": " תל אביב - יפו", "address": " מרמורק 16 ", "location": {"lat": 32.0713942, "lng": 34.7804846}, "datetime": [{"key": 71, "date": " 25/02/2021", "time_start": "10:40", "time_end": "11:30"}]}, {"key": 72, "name": " כללית", "city": " לוד", "address": "  35 ", "location": {"lat": 31.949477, "lng": 34.9043007}, "datetime": [{"key": 72, "date": " 25/02/2021", "time_start": "10:30", "time_end": "11:30"}]}, {"key": 73, "name": " מאפיית גידרון", "city": " חולון", "address": " השופטים 26 ", "location": {"lat": 32.0176811, "lng": 34.7987858}, "datetime": [{"key": 73, "date": " 25/02/2021", "time_start": "10:30", "time_end": "20:30"}, {"key": 239, "date": " 24/02/2021", "time_start": "10:00", "time_end": "20:00"}, {"key": 581, "date": " 23/02/2021", "time_start": "11:00", "time_end": "20:00"}, {"key": 701, "date": " 23/02/2021", "time_start": "08:00", "time_end": "19:30"}, {"key": 1100, "date": " 22/02/2021", "time_start": "10:00", "time_end": "20:00"}, {"key": 1259, "date": " 22/02/2021", "time_start": "08:00", "time_end": "19:30"}, {"key": 1944, "date": " 21/02/2021", "time_start": "08:00", "time_end": "19:30"}, {"key": 3330, "date": " 18/02/2021", "time_start": "08:00", "time_end": "19:30"}, {"key": 3961, "date": " 17/02/2021", "time_start": "08:00", "time_end": "19:30"}]}, {"key": 74, "name": " סופר פארם", "city": " קרית מוצקין", "address": " אח''י אילת  ", "location": {"lat": 32.8201872, "lng": 35.0724467}, "datetime": [{"key": 74, "date": " 25/02/2021", "time_start": "10:30", "time_end": "11:30"}]}, {"key": 75, "name": " קינגסטור", "city": " זרזיר", "address": " ", "location": {"lat": 32.7327606, "lng": 35.2175452}, "datetime": [{"key": 75, "date": " 25/02/2021", "time_start": "10:30", "time_end": "11:30"}]}, {"key": 77, "name": " מלונית בידוד", "city": " ירושלים", "address": " ", "location": {"lat": 31.797713, "lng": 35.235868}, "datetime": [{"key": 77, "date": " 25/02/2021", "time_start": "10:00", "time_end": "10:00"}, {"key": 241, "date": " 24/02/2021", "time_start": "10:00", "time_end": "10:00"}]}, {"key": 78, "name": " קניון מלחה", "city": " ירושלים", "address": " האייל 16 ", "location": {"lat": 31.7537756, "lng": 35.1853208}, "datetime": [{"key": 78, "date": " 25/02/2021", "time_start": "10:00", "time_end": "11:00"}, {"key": 859, "date": " 22/02/2021", "time_start": "18:00", "time_end": "19:00"}, {"key": 2688, "date": " 19/02/2021", "time_start": "08:30", "time_end": "11:30"}]}, {"key": 79, "name": " שופרסל", "city": " אשקלון", "address": " ", "location": {"lat": 31.67602089999999, "lng": 34.6060491}, "datetime": [{"key": 79, "date": " 25/02/2021", "time_start": "10:00", "time_end": "10:30"}, {"key": 1012, "date": " 22/02/2021", "time_start": "13:00", "time_end": "15:00"}, {"key": 1797, "date": " 21/02/2021", "time_start": "09:15", "time_end": "09:40"}]}, {"key": 80, "name": " שוק חנות ירקות", "city": " אור עקיבא", "address": " ", "location": {"lat": 32.5076092, "lng": 34.9185744}, "datetime": [{"key": 80, "date": " 25/02/2021", "time_start": "10:00", "time_end": "11:00"}]}, {"key": 82, "name": " מתנס", "city": " נצרת עילית", "address": " ", "location": {"lat": 32.699482, "lng": 35.3129876}, "datetime": [{"key": 82, "date": " 25/02/2021", "time_start": "09:00", "time_end": "09:05"}]}, {"key": 83, "name": " תחנת דלק", "city": " כפר סבא", "address": " בן יהודה 51 ", "location": {"lat": 32.184851, "lng": 34.91695199999999}, "datetime": [{"key": 83, "date": " 25/02/2021", "time_start": "09:00", "time_end": "16:00"}, {"key": 247, "date": " 24/02/2021", "time_start": "10:00", "time_end": "18:00"}, {"key": 704, "date": " 23/02/2021", "time_start": "08:00", "time_end": "17:00"}]}, {"key": 84, "name": " קופת חולים מכבי", "city": " אילת", "address": " שד התמרים 39 ", "location": {"lat": 29.5604642, "lng": 34.950437}, "datetime": [{"key": 84, "date": " 25/02/2021", "time_start": "08:30", "time_end": "08:50"}, {"key": 146, "date": " 24/02/2021", "time_start": "17:20", "time_end": "18:00"}, {"key": 434, "date": " 23/02/2021", "time_start": "17:20", "time_end": "18:00"}]}, {"key": 85, "name": " קסטרו ביג", "city": " באר שבע", "address": " דרך חברון 21 ", "location": {"lat": 31.2433956, "lng": 34.8106206}, "datetime": [{"key": 85, "date": " 25/02/2021", "time_start": "08:30", "time_end": "14:30"}, {"key": 270, "date": " 24/02/2021", "time_start": "08:30", "time_end": "12:30"}, {"key": 630, "date": " 23/02/2021", "time_start": "08:30", "time_end": "15:30"}, {"key": 1162, "date": " 22/02/2021", "time_start": "08:30", "time_end": "15:30"}, {"key": 1836, "date": " 21/02/2021", "time_start": "08:30", "time_end": "15:30"}]}, {"key": 86, "name": " אורות ירושלים", "city": " כפר קאסם", "address": " ", "location": {"lat": 32.1132653, "lng": 34.96348400000001}, "datetime": [{"key": 86, "date": " 25/02/2021", "time_start": "08:20", "time_end": "08:30"}]}, {"key": 87, "name": " דלתות אלון משרד פרטי", "city": " חולון", "address": " השופטים 35 ", "location": {"lat": 32.0179624, "lng": 34.798918}, "datetime": [{"key": 87, "date": " 25/02/2021", "time_start": "08:00", "time_end": "16:00"}]}, {"key": 88, "name": " הדסה עין כרם", "city": " ירושלים", "address": " ", "location": {"lat": 31.7656834, "lng": 35.1493192}, "datetime": [{"key": 88, "date": " 25/02/2021", "time_start": "08:00", "time_end": "08:30"}, {"key": 89, "date": " 25/02/2021", "time_start": "08:00", "time_end": "20:00"}, {"key": 339, "date": " 24/02/2021", "time_start": "06:00", "time_end": "14:00"}, {"key": 740, "date": " 23/02/2021", "time_start": "06:00", "time_end": "18:00"}, {"key": 1323, "date": " 22/02/2021", "time_start": "06:00", "time_end": "18:00"}, {"key": 1638, "date": " 21/02/2021", "time_start": "14:00", "time_end": "22:00"}, {"key": 1686, "date": " 21/02/2021", "time_start": "12:00", "time_end": "14:00"}, {"key": 1717, "date": " 21/02/2021", "time_start": "11:00", "time_end": "14:00"}, {"key": 2145, "date": " 20/02/2021", "time_start": "19:00", "time_end": "23:59"}, {"key": 2335, "date": " 20/02/2021", "time_start": "08:00", "time_end": "19:00"}, {"key": 3281, "date": " 18/02/2021", "time_start": "08:00", "time_end": "19:00"}, {"key": 3708, "date": " 17/02/2021", "time_start": "12:00", "time_end": "15:00"}, {"key": 5645, "date": " 15/02/2021", "time_start": "07:00", "time_end": "15:00"}, {"key": 6023, "date": " 14/02/2021", "time_start": "14:30", "time_end": "22:00"}, {"key": 6099, "date": " 14/02/2021", "time_start": "13:00", "time_end": "23:00"}, {"key": 6576, "date": " 14/02/2021", "time_start": "07:00", "time_end": "15:00"}, {"key": 6683, "date": " 14/02/2021", "time_start": "00:00", "time_end": "11:30"}, {"key": 6993, "date": " 13/02/2021", "time_start": "07:30", "time_end": "23:59"}, {"key": 7000, "date": " 13/02/2021", "time_start": "07:00", "time_end": "15:00"}]}, {"key": 90, "name": " חינוך בלתי פורמאלי", "city": " שעל", "address": " ", "location": {"lat": 32.3210549, "lng": 34.8532758}, "datetime": [{"key": 90, "date": " 25/02/2021", "time_start": "08:00", "time_end": "11:00"}]}, {"key": 91, "name": " מאר מטרי", "city": " ירושלים", "address": " ", "location": {"lat": 31.7826189, "lng": 35.2198597}, "datetime": [{"key": 91, "date": " 25/02/2021", "time_start": "08:00", "time_end": "12:00"}, {"key": 302, "date": " 24/02/2021", "time_start": "08:00", "time_end": "12:00"}, {"key": 678, "date": " 23/02/2021", "time_start": "08:00", "time_end": "12:00"}]}, {"key": 92, "name": " מהנדס מכונות", "city": " קרית גת", "address": "  10 ", "location": {"lat": 31.611148, "lng": 34.768459}, "datetime": [{"key": 92, "date": " 25/02/2021", "time_start": "08:00", "time_end": "12:00"}, {"key": 4049, "date": " 17/02/2021", "time_start": "06:00", "time_end": "14:00"}, {"key": 4792, "date": " 16/02/2021", "time_start": "07:00", "time_end": "14:00"}, {"key": 5121, "date": " 15/02/2021", "time_start": "16:00", "time_end": "16:30"}, {"key": 5700, "date": " 15/02/2021", "time_start": "06:00", "time_end": "14:00"}, {"key": 6626, "date": " 14/02/2021", "time_start": "06:00", "time_end": "14:00"}]}, {"key": 93, "name": " עובד בחברה סיג הלך לעבוד בשגרי", "city": " תל אביב - יפו", "address": " הירקון 71 ", "location": {"lat": 32.0767352, "lng": 34.7667005}, "datetime": [{"key": 93, "date": " 25/02/2021", "time_start": "08:00", "time_end": "14:15"}, {"key": 312, "date": " 24/02/2021", "time_start": "08:00", "time_end": "13:00"}]}, {"key": 94, "name": " רמי לוי", "city": " מודיעין-מכבים-רעות", "address": " ", "location": {"lat": 31.8868552, "lng": 34.9611475}, "datetime": [{"key": 94, "date": " 25/02/2021", "time_start": "08:00", "time_end": "11:00"}, {"key": 3136, "date": " 18/02/2021", "time_start": "10:15", "time_end": "10:55"}, {"key": 3163, "date": " 18/02/2021", "time_start": "10:00", "time_end": "12:00"}]}, {"key": 95, "name": " אתר דת בית כנסת", "city": " פתח תקווה", "address": " ארלוזורוב 3 ", "location": {"lat": 32.0850457, "lng": 34.8778461}, "datetime": [{"key": 95, "date": " 25/02/2021", "time_start": "07:50", "time_end": "09:10"}]}, {"key": 96, "name": " מיקה", "city": " שדרות", "address": " ", "location": {"lat": 31.5290432, "lng": 34.5872069}, "datetime": [{"key": 96, "date": " 25/02/2021", "time_start": "07:45", "time_end": "15:30"}, {"key": 316, "date": " 24/02/2021", "time_start": "07:50", "time_end": "13:40"}, {"key": 706, "date": " 23/02/2021", "time_start": "07:45", "time_end": "13:40"}, {"key": 1270, "date": " 22/02/2021", "time_start": "07:45", "time_end": "13:40"}, {"key": 2990, "date": " 18/02/2021", "time_start": "15:10", "time_end": "15:20"}]}, {"key": 97, "name": " גן תות שפיים", "city": " שפיים", "address": " ", "location": {"lat": 32.2160005, "lng": 34.8205851}, "datetime": [{"key": 97, "date": " 25/02/2021", "time_start": "07:30", "time_end": "16:00"}, {"key": 319, "date": " 24/02/2021", "time_start": "07:30", "time_end": "16:00"}, {"key": 710, "date": " 23/02/2021", "time_start": "07:30", "time_end": "16:00"}, {"key": 1280, "date": " 22/02/2021", "time_start": "07:30", "time_end": "16:00"}, {"key": 1978, "date": " 21/02/2021", "time_start": "07:30", "time_end": "16:00"}, {"key": 3354, "date": " 18/02/2021", "time_start": "07:30", "time_end": "16:00"}, {"key": 3984, "date": " 17/02/2021", "time_start": "07:30", "time_end": "16:00"}]}, {"key": 98, "name": " כבאות והצלה", "city": " באר שבע", "address": " מלל סעדיה  ", "location": {"lat": 31.248722, "lng": 34.8192011}, "datetime": [{"key": 98, "date": " 25/02/2021", "time_start": "07:30", "time_end": "15:00"}, {"key": 978, "date": " 22/02/2021", "time_start": "14:00", "time_end": "14:45"}]}, {"key": 100, "name": " נתן קומוי 20 נתניה", "city": " נתניה", "address": "  20 ", "location": {"lat": 32.2863109, "lng": 34.8570938}, "datetime": [{"key": 100, "date": " 25/02/2021", "time_start": "07:30", "time_end": "13:30"}, {"key": 321, "date": " 24/02/2021", "time_start": "07:30", "time_end": "13:30"}, {"key": 1284, "date": " 22/02/2021", "time_start": "07:30", "time_end": "13:30"}, {"key": 1982, "date": " 21/02/2021", "time_start": "07:30", "time_end": "13:30"}]}, {"key": 101, "name": " סופר סל", "city": " ראש העין", "address": " דיין משה 2 ", "location": {"lat": 32.0923564, "lng": 34.9661753}, "datetime": [{"key": 101, "date": " 25/02/2021", "time_start": "07:30", "time_end": "08:21"}, {"key": 2751, "date": " 19/02/2021", "time_start": "07:30", "time_end": "08:00"}, {"key": 2951, "date": " 18/02/2021", "time_start": "17:00", "time_end": "18:30"}]}, {"key": 102, "name": " גן נמש", "city": " עתלית", "address": " ", "location": {"lat": 32.6893209, "lng": 34.9401743}, "datetime": [{"key": 102, "date": " 25/02/2021", "time_start": "07:00", "time_end": "16:00"}]}, {"key": 103, "name": " הלל יפה", "city": " חדרה", "address": " השלום  ", "location": {"lat": 32.451313, "lng": 34.895778}, "datetime": [{"key": 103, "date": " 25/02/2021", "time_start": "07:00", "time_end": "14:00"}, {"key": 325, "date": " 24/02/2021", "time_start": "07:00", "time_end": "23:59"}, {"key": 722, "date": " 23/02/2021", "time_start": "07:00", "time_end": "23:59"}, {"key": 2757, "date": " 19/02/2021", "time_start": "07:00", "time_end": "23:59"}, {"key": 2797, "date": " 19/02/2021", "time_start": "00:00", "time_end": "00:00"}, {"key": 3386, "date": " 18/02/2021", "time_start": "07:00", "time_end": "23:59"}, {"key": 5514, "date": " 15/02/2021", "time_start": "08:00", "time_end": "20:00"}]}, {"key": 106, "name": " יוחננוף", "city": " מודיעין-מכבים-רעות", "address": " ", "location": {"lat": 31.8899802, "lng": 34.9613115}, "datetime": [{"key": 106, "date": " 25/02/2021", "time_start": "07:00", "time_end": "19:00"}, {"key": 2494, "date": " 19/02/2021", "time_start": "12:30", "time_end": "14:00"}, {"key": 2927, "date": " 18/02/2021", "time_start": "17:15", "time_end": "18:30"}]}, {"key": 107, "name": " מפעל מיטרוניקס", "city": " דלתון", "address": " ", "location": {"lat": 33.0248462, "lng": 35.4796872}, "datetime": [{"key": 107, "date": " 25/02/2021", "time_start": "07:00", "time_end": "09:30"}, {"key": 330, "date": " 24/02/2021", "time_start": "07:00", "time_end": "19:00"}, {"key": 1298, "date": " 22/02/2021", "time_start": "07:00", "time_end": "17:00"}]}, {"key": 108, "name": " גן פעוטון סביון", "city": " באר שבע", "address": "  8 ", "location": {"lat": 31.2704722, "lng": 34.7679589}, "datetime": [{"key": 108, "date": " 25/02/2021", "time_start": "06:30", "time_end": "17:00"}, {"key": 334, "date": " 24/02/2021", "time_start": "06:30", "time_end": "17:00"}, {"key": 729, "date": " 23/02/2021", "time_start": "06:30", "time_end": "17:00"}, {"key": 1310, "date": " 22/02/2021", "time_start": "06:30", "time_end": "17:00"}, {"key": 2015, "date": " 21/02/2021", "time_start": "06:30", "time_end": "17:00"}]}, {"key": 109, "name": " שופרסל הר בוקר", "city": " באר שבע", "address": " הר בוקר 17 ", "location": {"lat": 31.2726101, "lng": 34.8105409}, "datetime": [{"key": 109, "date": " 25/02/2021", "time_start": "06:15", "time_end": "08:30"}, {"key": 315, "date": " 24/02/2021", "time_start": "08:00", "time_end": "15:00"}, {"key": 460, "date": " 23/02/2021", "time_start": "16:30", "time_end": "21:00"}, {"key": 735, "date": " 23/02/2021", "time_start": "06:30", "time_end": "11:30"}, {"key": 1011, "date": " 22/02/2021", "time_start": "13:00", "time_end": "20:00"}, {"key": 1952, "date": " 21/02/2021", "time_start": "08:00", "time_end": "15:00"}, {"key": 2023, "date": " 21/02/2021", "time_start": "06:30", "time_end": "14:00"}, {"key": 2773, "date": " 19/02/2021", "time_start": "06:15", "time_end": "13:30"}, {"key": 3335, "date": " 18/02/2021", "time_start": "08:00", "time_end": "15:00"}, {"key": 3969, "date": " 17/02/2021", "time_start": "08:00", "time_end": "15:00"}]}, {"key": 110, "name": " בית מדרש", "city": " ירושלים", "address": " גואטמאלה 8 ", "location": {"lat": 31.792264, "lng": 35.2132807}, "datetime": [{"key": 110, "date": " 25/02/2021", "time_start": "06:10", "time_end": "07:10"}, {"key": 335, "date": " 24/02/2021", "time_start": "06:10", "time_end": "07:10"}, {"key": 736, "date": " 23/02/2021", "time_start": "06:10", "time_end": "07:10"}, {"key": 1319, "date": " 22/02/2021", "time_start": "06:10", "time_end": "07:10"}, {"key": 2024, "date": " 21/02/2021", "time_start": "06:10", "time_end": "07:10"}]}, {"key": 111, "name": " כלבו אשדות יעקוב", "city": " אשדות יעקב  (איחוד)", "address": " ", "location": {"lat": 32.6583796, "lng": 35.5803296}, "datetime": [{"key": 111, "date": " 25/02/2021", "time_start": "05:30", "time_end": "14:00"}, {"key": 345, "date": " 24/02/2021", "time_start": "05:30", "time_end": "14:00"}, {"key": 747, "date": " 23/02/2021", "time_start": "05:30", "time_end": "14:00"}, {"key": 1333, "date": " 22/02/2021", "time_start": "05:30", "time_end": "14:00"}, {"key": 2041, "date": " 21/02/2021", "time_start": "05:30", "time_end": "14:00"}]}, {"key": 112, "name": " אריסטו שמט", "city": " חיפה", "address": " ", "location": {"lat": 32.7897521, "lng": 34.9648409}, "datetime": [{"key": 112, "date": " 25/02/2021", "time_start": "00:00", "time_end": "00:00"}]}, {"key": 113, "name": " בית חולים מאיר", "city": " כפר סבא", "address": " טשרניחובסקי 59 ", "location": {"lat": 32.1823231, "lng": 34.8954868}, "datetime": [{"key": 113, "date": " 25/02/2021", "time_start": "00:00", "time_end": "23:59"}, {"key": 189, "date": " 24/02/2021", "time_start": "14:00", "time_end": "23:59"}, {"key": 236, "date": " 24/02/2021", "time_start": "10:00", "time_end": "16:00"}, {"key": 250, "date": " 24/02/2021", "time_start": "09:30", "time_end": "10:00"}, {"key": 267, "date": " 24/02/2021", "time_start": "08:30", "time_end": "09:30"}, {"key": 278, "date": " 24/02/2021", "time_start": "08:00", "time_end": "08:30"}, {"key": 351, "date": " 24/02/2021", "time_start": "00:00", "time_end": "08:00"}, {"key": 363, "date": " 24/02/2021", "time_start": "00:00", "time_end": "00:00"}, {"key": 386, "date": " 23/02/2021", "time_start": "20:30", "time_end": "23:59"}, {"key": 2355, "date": " 20/02/2021", "time_start": "07:00", "time_end": "15:00"}, {"key": 3026, "date": " 18/02/2021", "time_start": "14:00", "time_end": "23:00"}, {"key": 4007, "date": " 17/02/2021", "time_start": "07:00", "time_end": "15:00"}, {"key": 5190, "date": " 15/02/2021", "time_start": "14:00", "time_end": "23:00"}, {"key": 7024, "date": " 13/02/2021", "time_start": "00:00", "time_end": "02:00"}]}, {"key": 114, "name": " גן ציבורי ברחוב בן צבי", "city": " חיפה", "address": " ", "location": {"lat": 32.8265659, "lng": 35.0646868}, "datetime": [{"key": 114, "date": " 25/02/2021", "time_start": "00:00", "time_end": "00:00"}, {"key": 355, "date": " 24/02/2021", "time_start": "00:00", "time_end": "00:00"}]}, {"key": 115, "name": " דרייב אין מתחם לבדיקת קורונה", "city": " חיפה", "address": " קדושי יאסי 2 ", "location": {"lat": 32.791984, "lng": 34.9653899}, "datetime": [{"key": 115, "date": " 25/02/2021", "time_start": "00:00", "time_end": "00:00"}, {"key": 165, "date": " 24/02/2021", "time_start": "16:00", "time_end": "16:15"}, {"key": 563, "date": " 23/02/2021", "time_start": "12:00", "time_end": "12:15"}, {"key": 4433, "date": " 16/02/2021", "time_start": "12:00", "time_end": "12:10"}, {"key": 5259, "date": " 15/02/2021", "time_start": "12:00", "time_end": "12:20"}, {"key": 6950, "date": " 13/02/2021", "time_start": "09:30", "time_end": "19:00"}]}, {"key": 118, "name": " מוסך מכשירי תנועה", "city": " ראשון לציון", "address": " שנקר אריה 11 ", "location": {"lat": 31.9502255, "lng": 34.7573817}, "datetime": [{"key": 118, "date": " 25/02/2021", "time_start": "00:00", "time_end": "00:00"}, {"key": 329, "date": " 24/02/2021", "time_start": "07:00", "time_end": "16:00"}, {"key": 725, "date": " 23/02/2021", "time_start": "07:00", "time_end": "16:00"}, {"key": 2003, "date": " 21/02/2021", "time_start": "07:00", "time_end": "16:00"}, {"key": 3392, "date": " 18/02/2021", "time_start": "07:00", "time_end": "16:00"}]}, {"key": 119, "name": " מחלקת קרונה", "city": " עפולה", "address": "  21 ", "location": {"lat": 32.6104931, "lng": 35.287922}, "datetime": [{"key": 119, "date": " 25/02/2021", "time_start": "00:00", "time_end": "00:00"}, {"key": 365, "date": " 24/02/2021", "time_start": "00:00", "time_end": "00:00"}, {"key": 775, "date": " 23/02/2021", "time_start": "00:00", "time_end": "00:00"}, {"key": 918, "date": " 22/02/2021", "time_start": "16:00", "time_end": "22:00"}, {"key": 1697, "date": " 21/02/2021", "time_start": "12:00", "time_end": "13:30"}]}, {"key": 122, "name": " סופר מרקט אושר עד", "city": " חיפה", "address": " בר יהודה ישראל 31 ", "location": {"lat": 32.78099, "lng": 35.0347272}, "datetime": [{"key": 122, "date": " 24/02/2021", "time_start": "21:30", "time_end": "22:15"}, {"key": 2834, "date": " 18/02/2021", "time_start": "21:00", "time_end": "23:55"}, {"key": 2993, "date": " 18/02/2021", "time_start": "15:00", "time_end": "16:00"}, {"key": 4172, "date": " 16/02/2021", "time_start": "19:30", "time_end": "22:00"}, {"key": 4194, "date": " 16/02/2021", "time_start": "18:30", "time_end": "19:30"}, {"key": 4999, "date": " 15/02/2021", "time_start": "19:00", "time_end": "20:00"}]}, {"key": 124, "name": " אושר עד", "city": " אשדוד", "address": " בעלי מלאכה 4 ", "location": {"lat": 31.8119444, "lng": 34.6630556}, "datetime": [{"key": 124, "date": " 24/02/2021", "time_start": "20:00", "time_end": "21:00"}, {"key": 187, "date": " 24/02/2021", "time_start": "14:00", "time_end": "15:30"}, {"key": 436, "date": " 23/02/2021", "time_start": "17:00", "time_end": "18:00"}, {"key": 2840, "date": " 18/02/2021", "time_start": "21:00", "time_end": "23:00"}, {"key": 3526, "date": " 17/02/2021", "time_start": "18:00", "time_end": "20:30"}, {"key": 4218, "date": " 16/02/2021", "time_start": "17:30", "time_end": "18:30"}]}, {"key": 125, "name": " מתחם חיסון מכבי", "city": " קרית גת", "address": " שד העצמאות 66 ", "location": {"lat": 31.6094035, "lng": 34.7686469}, "datetime": [{"key": 125, "date": " 24/02/2021", "time_start": "20:00", "time_end": "20:30"}, {"key": 5130, "date": " 15/02/2021", "time_start": "16:00", "time_end": "16:20"}, {"key": 5468, "date": " 15/02/2021", "time_start": "08:15", "time_end": "08:30"}]}, {"key": 126, "name": " רמי לוי", "city": " בית הגדי", "address": " ", "location": {"lat": 31.4169349, "lng": 34.6153717}, "datetime": [{"key": 126, "date": " 24/02/2021", "time_start": "20:00", "time_end": "21:00"}, {"key": 3493, "date": " 17/02/2021", "time_start": "22:00", "time_end": "22:30"}, {"key": 5015, "date": " 15/02/2021", "time_start": "18:30", "time_end": "20:00"}, {"key": 6172, "date": " 14/02/2021", "time_start": "12:00", "time_end": "12:40"}]}, {"key": 127, "name": " סופר פארם", "city": " באר שבע", "address": "  28 ", "location": {"lat": 31.2392165, "lng": 34.7740181}, "datetime": [{"key": 127, "date": " 24/02/2021", "time_start": "19:30", "time_end": "20:00"}, {"key": 6168, "date": " 14/02/2021", "time_start": "12:00", "time_end": "12:30"}]}, {"key": 128, "name": " סופר רמי לוי", "city": " טבריה", "address": " המברג 1 ", "location": {"lat": 32.7849176, "lng": 35.4989875}, "datetime": [{"key": 128, "date": " 24/02/2021", "time_start": "19:30", "time_end": "20:00"}, {"key": 1388, "date": " 22/02/2021", "time_start": "00:00", "time_end": "00:00"}]}, {"key": 129, "name": " שמואל שפע ברכה", "city": " ירושלים", "address": " פארן 7 ", "location": {"lat": 31.8006054, "lng": 35.228641}, "datetime": [{"key": 129, "date": " 24/02/2021", "time_start": "19:20", "time_end": "19:45"}]}, {"key": 130, "name": " אאממתקים", "city": " אשקלון", "address": " ", "location": {"lat": 31.6620831, "lng": 34.58649990000001}, "datetime": [{"key": 130, "date": " 24/02/2021", "time_start": "19:00", "time_end": "19:20"}]}, {"key": 131, "name": " איי אם פי אם", "city": " רמת גן", "address": " הרא''ה  ", "location": {"lat": 32.083979, "lng": 34.8167665}, "datetime": [{"key": 131, "date": " 24/02/2021", "time_start": "19:00", "time_end": "19:30"}]}, {"key": 132, "name": " בית כנסת", "city": " ירושלים", "address": " שטרן אברהם 5 ", "location": {"lat": 31.7543007, "lng": 35.1848786}, "datetime": [{"key": 132, "date": " 24/02/2021", "time_start": "19:00", "time_end": "19:15"}, {"key": 402, "date": " 23/02/2021", "time_start": "19:00", "time_end": "19:15"}, {"key": 820, "date": " 22/02/2021", "time_start": "19:00", "time_end": "19:15"}, {"key": 1433, "date": " 21/02/2021", "time_start": "19:00", "time_end": "19:15"}]}, {"key": 133, "name": " חנות תבלינים", "city": " אילת", "address": " הסתת 2 ", "location": {"lat": 29.5635762, "lng": 34.9585381}, "datetime": [{"key": 133, "date": " 24/02/2021", "time_start": "19:00", "time_end": "19:45"}]}, {"key": 134, "name": " מוזלים", "city": " נתניה", "address": " פנקס דוד 45 ", "location": {"lat": 32.3142552, "lng": 34.8734615}, "datetime": [{"key": 134, "date": " 24/02/2021", "time_start": "19:00", "time_end": "20:00"}]}, {"key": 135, "name": " סופר שוק העיר קניון רמות", "city": " ירושלים", "address": " שד גולדה מאיר 255 ", "location": {"lat": 31.816866, "lng": 35.194922}, "datetime": [{"key": 135, "date": " 24/02/2021", "time_start": "19:00", "time_end": "21:00"}, {"key": 409, "date": " 23/02/2021", "time_start": "19:00", "time_end": "21:00"}, {"key": 2612, "date": " 19/02/2021", "time_start": "10:00", "time_end": "11:00"}, {"key": 2680, "date": " 19/02/2021", "time_start": "09:00", "time_end": "09:30"}, {"key": 3041, "date": " 18/02/2021", "time_start": "14:00", "time_end": "15:00"}, {"key": 3120, "date": " 18/02/2021", "time_start": "11:00", "time_end": "12:20"}, {"key": 3207, "date": " 18/02/2021", "time_start": "09:00", "time_end": "09:30"}, {"key": 3840, "date": " 17/02/2021", "time_start": "09:00", "time_end": "09:30"}, {"key": 4452, "date": " 16/02/2021", "time_start": "12:00", "time_end": "13:00"}, {"key": 4488, "date": " 16/02/2021", "time_start": "11:00", "time_end": "12:00"}, {"key": 4599, "date": " 16/02/2021", "time_start": "09:00", "time_end": "09:30"}, {"key": 5208, "date": " 15/02/2021", "time_start": "14:00", "time_end": "15:00"}, {"key": 5243, "date": " 15/02/2021", "time_start": "12:56", "time_end": "13:15"}, {"key": 5272, "date": " 15/02/2021", "time_start": "12:00", "time_end": "13:45"}]}, {"key": 136, "name": " פלדמן", "city": " רחובות", "address": " יצירה 27 ", "location": {"lat": 31.8889112, "lng": 34.7818138}, "datetime": [{"key": 136, "date": " 24/02/2021", "time_start": "19:00", "time_end": "20:00"}, {"key": 410, "date": " 23/02/2021", "time_start": "19:00", "time_end": "23:00"}, {"key": 834, "date": " 22/02/2021", "time_start": "19:00", "time_end": "23:00"}, {"key": 1445, "date": " 21/02/2021", "time_start": "19:00", "time_end": "23:00"}]}, {"key": 137, "name": " סופר יש", "city": " ירושלים", "address": " פארן 7 ", "location": {"lat": 31.8009768, "lng": 35.2288741}, "datetime": [{"key": 137, "date": " 24/02/2021", "time_start": "18:45", "time_end": "19:20"}]}, {"key": 138, "name": " כללית סמייל", "city": " פתח תקווה", "address": " פרידמן אלעזר 9 ", "location": {"lat": 32.0794158, "lng": 34.9026364}, "datetime": [{"key": 138, "date": " 24/02/2021", "time_start": "18:40", "time_end": "19:00"}]}, {"key": 139, "name": " אנגלי נצרת", "city": " נצרת", "address": " ", "location": {"lat": 32.702209, "lng": 35.2921401}, "datetime": [{"key": 139, "date": " 24/02/2021", "time_start": "18:00", "time_end": "23:30"}, {"key": 3020, "date": " 18/02/2021", "time_start": "14:30", "time_end": "15:00"}, {"key": 4800, "date": " 16/02/2021", "time_start": "07:00", "time_end": "20:00"}, {"key": 4891, "date": " 16/02/2021", "time_start": "00:00", "time_end": "23:59"}, {"key": 5748, "date": " 15/02/2021", "time_start": "00:00", "time_end": "23:59"}, {"key": 6673, "date": " 14/02/2021", "time_start": "00:00", "time_end": "23:59"}]}, {"key": 140, "name": " מאוחדת", "city": " ראשון לציון", "address": " פיק''א 31 ", "location": {"lat": 31.9715961, "lng": 34.813689}, "datetime": [{"key": 140, "date": " 24/02/2021", "time_start": "18:00", "time_end": "18:15"}, {"key": 1385, "date": " 22/02/2021", "time_start": "00:00", "time_end": "00:00"}]}, {"key": 141, "name": " פיצוצייה", "city": " נתניה", "address": "  41 ", "location": {"lat": 32.321458, "lng": 34.853196}, "datetime": [{"key": 141, "date": " 24/02/2021", "time_start": "18:00", "time_end": "19:00"}, {"key": 1409, "date": " 21/02/2021", "time_start": "20:30", "time_end": "21:30"}, {"key": 2073, "date": " 21/02/2021", "time_start": "00:00", "time_end": "00:00"}, {"key": 3070, "date": " 18/02/2021", "time_start": "13:00", "time_end": "15:00"}, {"key": 3822, "date": " 17/02/2021", "time_start": "09:00", "time_end": "16:00"}, {"key": 4041, "date": " 17/02/2021", "time_start": "06:40", "time_end": "12:00"}, {"key": 4840, "date": " 16/02/2021", "time_start": "06:40", "time_end": "12:00"}, {"key": 5689, "date": " 15/02/2021", "time_start": "06:40", "time_end": "12:00"}, {"key": 6189, "date": " 14/02/2021", "time_start": "11:30", "time_end": "11:45"}, {"key": 6387, "date": " 14/02/2021", "time_start": "08:00", "time_end": "16:00"}, {"key": 6621, "date": " 14/02/2021", "time_start": "06:40", "time_end": "12:00"}]}, {"key": 142, "name": " שופרסל סופר מרקט", "city": " שדרות", "address": "  8 ", "location": {"lat": 31.5207301, "lng": 34.594066}, "datetime": [{"key": 142, "date": " 24/02/2021", "time_start": "18:00", "time_end": "20:00"}, {"key": 2890, "date": " 18/02/2021", "time_start": "18:30", "time_end": "19:00"}, {"key": 5211, "date": " 15/02/2021", "time_start": "14:00", "time_end": "15:00"}]}, {"key": 143, "name": " סופר מרקט", "city": " שדרות", "address": " הרצל 41 ", "location": {"lat": 31.5242478, "lng": 34.5922817}, "datetime": [{"key": 143, "date": " 24/02/2021", "time_start": "17:40", "time_end": "17:50"}, {"key": 429, "date": " 23/02/2021", "time_start": "17:40", "time_end": "17:50"}, {"key": 2568, "date": " 19/02/2021", "time_start": "11:00", "time_end": "12:00"}, {"key": 3716, "date": " 17/02/2021", "time_start": "12:00", "time_end": "13:00"}]}, {"key": 144, "name": " גמבו סטוק נתניה", "city": " נתניה", "address": " המחקר 3 ", "location": {"lat": 32.29081420000001, "lng": 34.8616661}, "datetime": [{"key": 144, "date": " 24/02/2021", "time_start": "17:30", "time_end": "18:00"}]}, {"key": 145, "name": " מגיק לייט", "city": " מבקיעים", "address": " ", "location": {"lat": 31.6275729, "lng": 34.581913}, "datetime": [{"key": 145, "date": " 24/02/2021", "time_start": "17:30", "time_end": "17:45"}]}, {"key": 147, "name": " אולפנת רגבים", "city": " רמת מגשימים", "address": " ", "location": {"lat": 32.84616, "lng": 35.810584}, "datetime": [{"key": 147, "date": " 24/02/2021", "time_start": "17:00", "time_end": "18:30"}, {"key": 889, "date": " 22/02/2021", "time_start": "17:00", "time_end": "18:30"}]}, {"key": 148, "name": " אינפיניטי לימודי פסיכומטרי", "city": " חיפה", "address": " דרך יפו 119 ", "location": {"lat": 32.8240311, "lng": 34.9908943}, "datetime": [{"key": 148, "date": " 24/02/2021", "time_start": "17:00", "time_end": "19:00"}]}, {"key": 149, "name": " בורגר לגנדס", "city": " חדרה", "address": " הגבורים 63 ", "location": {"lat": 32.4370234, "lng": 34.9227262}, "datetime": [{"key": 149, "date": " 24/02/2021", "time_start": "17:00", "time_end": "23:00"}, {"key": 6082, "date": " 14/02/2021", "time_start": "13:30", "time_end": "14:00"}]}, {"key": 151, "name": " חנות באג", "city": " כרמיאל", "address": " מעלה כמון 5 ", "location": {"lat": 32.9279259, "lng": 35.3263418}, "datetime": [{"key": 151, "date": " 24/02/2021", "time_start": "17:00", "time_end": "17:30"}]}, {"key": 152, "name": " טמבור קניון רמות", "city": " ירושלים", "address": " שד גולדה מאיר 1 ", "location": {"lat": 31.8004739, "lng": 35.2076971}, "datetime": [{"key": 152, "date": " 24/02/2021", "time_start": "17:00", "time_end": "18:00"}, {"key": 199, "date": " 24/02/2021", "time_start": "13:00", "time_end": "14:00"}, {"key": 578, "date": " 23/02/2021", "time_start": "11:00", "time_end": "12:00"}, {"key": 579, "date": " 23/02/2021", "time_start": "11:00", "time_end": "12:00"}, {"key": 948, "date": " 22/02/2021", "time_start": "15:00", "time_end": "17:00"}, {"key": 1055, "date": " 22/02/2021", "time_start": "11:00", "time_end": "12:00"}, {"key": 1515, "date": " 21/02/2021", "time_start": "17:00", "time_end": "18:00"}, {"key": 2512, "date": " 19/02/2021", "time_start": "12:00", "time_end": "13:00"}]}, {"key": 153, "name": " מתחם לבדיקת קורונה", "city": " באר שבע", "address": " סמילנסקי 79 ", "location": {"lat": 31.2401219, "lng": 34.7835946}, "datetime": [{"key": 153, "date": " 24/02/2021", "time_start": "17:00", "time_end": "17:45"}, {"key": 1019, "date": " 22/02/2021", "time_start": "12:30", "time_end": "13:30"}]}, {"key": 154, "name": " סופר מרקט ויקטורי ברנע אשקלון", "city": " אשקלון", "address": " זאבי רחבעם  ", "location": {"lat": 31.6971812, "lng": 34.5758953}, "datetime": [{"key": 154, "date": " 24/02/2021", "time_start": "17:00", "time_end": "17:30"}]}, {"key": 155, "name": " רחבה תיכון רבין אילת", "city": " אילת", "address": " ", "location": {"lat": 29.5537427, "lng": 34.9364394}, "datetime": [{"key": 155, "date": " 24/02/2021", "time_start": "17:00", "time_end": "17:19"}, {"key": 156, "date": " 24/02/2021", "time_start": "17:00", "time_end": "17:40"}, {"key": 170, "date": " 24/02/2021", "time_start": "15:45", "time_end": "16:10"}, {"key": 473, "date": " 23/02/2021", "time_start": "16:00", "time_end": "16:20"}, {"key": 474, "date": " 23/02/2021", "time_start": "16:00", "time_end": "16:30"}, {"key": 510, "date": " 23/02/2021", "time_start": "15:00", "time_end": "15:30"}, {"key": 910, "date": " 22/02/2021", "time_start": "16:00", "time_end": "16:30"}, {"key": 921, "date": " 22/02/2021", "time_start": "16:00", "time_end": "16:30"}, {"key": 1448, "date": " 21/02/2021", "time_start": "19:00", "time_end": "19:25"}, {"key": 1449, "date": " 21/02/2021", "time_start": "19:00", "time_end": "19:30"}, {"key": 1618, "date": " 21/02/2021", "time_start": "15:00", "time_end": "15:30"}, {"key": 2128, "date": " 20/02/2021", "time_start": "20:00", "time_end": "20:30"}, {"key": 2143, "date": " 20/02/2021", "time_start": "19:10", "time_end": "19:30"}, {"key": 2178, "date": " 20/02/2021", "time_start": "17:00", "time_end": "17:30"}, {"key": 2207, "date": " 20/02/2021", "time_start": "15:00", "time_end": "15:30"}, {"key": 2637, "date": " 19/02/2021", "time_start": "09:30", "time_end": "09:45"}, {"key": 2950, "date": " 18/02/2021", "time_start": "17:00", "time_end": "17:20"}, {"key": 3521, "date": " 17/02/2021", "time_start": "18:10", "time_end": "18:30"}, {"key": 3616, "date": " 17/02/2021", "time_start": "15:20", "time_end": "15:40"}, {"key": 3669, "date": " 17/02/2021", "time_start": "14:00", "time_end": "14:45"}, {"key": 4286, "date": " 16/02/2021", "time_start": "16:00", "time_end": "16:35"}, {"key": 4324, "date": " 16/02/2021", "time_start": "15:00", "time_end": "15:39"}, {"key": 4980, "date": " 15/02/2021", "time_start": "20:00", "time_end": "20:30"}, {"key": 4994, "date": " 15/02/2021", "time_start": "19:00", "time_end": "19:30"}, {"key": 5091, "date": " 15/02/2021", "time_start": "17:00", "time_end": "17:20"}, {"key": 5916, "date": " 14/02/2021", "time_start": "17:00", "time_end": "17:30"}, {"key": 6743, "date": " 13/02/2021", "time_start": "21:00", "time_end": "21:31"}]}, {"key": 157, "name": " יוחננוף", "city": " נתניה", "address": " הצורן 2 ", "location": {"lat": 32.2868611, "lng": 34.8664061}, "datetime": [{"key": 157, "date": " 24/02/2021", "time_start": "16:45", "time_end": "18:00"}, {"key": 1122, "date": " 22/02/2021", "time_start": "09:30", "time_end": "10:00"}, {"key": 2966, "date": " 18/02/2021", "time_start": "16:00", "time_end": "16:30"}]}, {"key": 158, "name": " שוק העיר מחלקת משקאות", "city": " אשקלון", "address": " אלי כהן 9 ", "location": {"lat": 31.6675239, "lng": 34.56894279999999}, "datetime": [{"key": 158, "date": " 24/02/2021", "time_start": "16:35", "time_end": "16:55"}, {"key": 1408, "date": " 21/02/2021", "time_start": "20:30", "time_end": "21:30"}]}, {"key": 159, "name": " ניצת הדובדבן", "city": " ראש פינה", "address": "  1 ", "location": {"lat": 32.9690351, "lng": 35.5476683}, "datetime": [{"key": 159, "date": " 24/02/2021", "time_start": "16:30", "time_end": "17:00"}]}, {"key": 160, "name": " סופר פארם", "city": " באר שבע", "address": " שינדלר אוסקר 21 ", "location": {"lat": 31.2830056, "lng": 34.7994478}, "datetime": [{"key": 160, "date": " 24/02/2021", "time_start": "16:30", "time_end": "17:00"}, {"key": 5329, "date": " 15/02/2021", "time_start": "10:40", "time_end": "11:00"}]}, {"key": 161, "name": " פארק הירוק באיזור סקייטפארק", "city": " יבנה", "address": " הנמל  ", "location": {"lat": 31.8738124, "lng": 34.7407182}, "datetime": [{"key": 161, "date": " 24/02/2021", "time_start": "16:20", "time_end": "18:20"}, {"key": 750, "date": " 23/02/2021", "time_start": "00:01", "time_end": "01:00"}, {"key": 793, "date": " 22/02/2021", "time_start": "23:20", "time_end": "23:59"}]}, {"key": 162, "name": " מוסד רפואי קופת חולים", "city": " טורעאן", "address": " ", "location": {"lat": 32.776851, "lng": 35.371433}, "datetime": [{"key": 162, "date": " 24/02/2021", "time_start": "16:15", "time_end": "16:30"}]}, {"key": 163, "name": " אימון כושר", "city": " גבעתיים", "address": " ", "location": {"lat": 32.0748644, "lng": 34.8017532}, "datetime": [{"key": 163, "date": " 24/02/2021", "time_start": "16:00", "time_end": "16:45"}]}, {"key": 164, "name": " דיזינגוף סנטר", "city": " תל אביב - יפו", "address": " דיזנגוף 50 ", "location": {"lat": 32.0750224, "lng": 34.7749395}, "datetime": [{"key": 164, "date": " 24/02/2021", "time_start": "16:00", "time_end": "20:00"}, {"key": 505, "date": " 23/02/2021", "time_start": "15:00", "time_end": "19:00"}, {"key": 887, "date": " 22/02/2021", "time_start": "17:00", "time_end": "19:00"}, {"key": 1304, "date": " 22/02/2021", "time_start": "07:00", "time_end": "15:00"}, {"key": 2009, "date": " 21/02/2021", "time_start": "07:00", "time_end": "15:00"}, {"key": 2259, "date": " 20/02/2021", "time_start": "12:00", "time_end": "14:00"}, {"key": 2474, "date": " 19/02/2021", "time_start": "13:00", "time_end": "15:00"}, {"key": 4516, "date": " 16/02/2021", "time_start": "10:00", "time_end": "13:30"}, {"key": 5940, "date": " 14/02/2021", "time_start": "16:00", "time_end": "18:00"}, {"key": 6654, "date": " 14/02/2021", "time_start": "05:03", "time_end": "10:03"}]}, {"key": 166, "name": " מקומות ציבוריים נוספים חנויות", "city": " באר שבע", "address": " וולפסון דוד 13 ", "location": {"lat": 31.2456117, "lng": 34.7982985}, "datetime": [{"key": 166, "date": " 24/02/2021", "time_start": "16:00", "time_end": "17:00"}]}, {"key": 167, "name": " סופר פארם עפולה", "city": " עפולה", "address": "  18 ", "location": {"lat": 32.6061191, "lng": 35.2929704}, "datetime": [{"key": 167, "date": " 24/02/2021", "time_start": "16:00", "time_end": "21:00"}]}, {"key": 168, "name": " סופר פארם עפולה", "city": " עפולה", "address": " חנקין יהושע 14 ", "location": {"lat": 32.6039118, "lng": 35.294019}, "datetime": [{"key": 168, "date": " 24/02/2021", "time_start": "16:00", "time_end": "21:00"}, {"key": 469, "date": " 23/02/2021", "time_start": "16:00", "time_end": "21:00"}, {"key": 629, "date": " 23/02/2021", "time_start": "08:30", "time_end": "15:00"}, {"key": 1160, "date": " 22/02/2021", "time_start": "08:30", "time_end": "15:00"}, {"key": 3086, "date": " 18/02/2021", "time_start": "12:00", "time_end": "13:00"}, {"key": 3220, "date": " 18/02/2021", "time_start": "08:30", "time_end": "15:00"}, {"key": 6062, "date": " 14/02/2021", "time_start": "14:00", "time_end": "15:10"}]}, {"key": 169, "name": " קופת חולים מכבי", "city": " רמת גן", "address": "  17 ", "location": {"lat": 32.0801724, "lng": 34.8154191}, "datetime": [{"key": 169, "date": " 24/02/2021", "time_start": "16:00", "time_end": "17:00"}, {"key": 1006, "date": " 22/02/2021", "time_start": "13:00", "time_end": "13:45"}]}, {"key": 171, "name": " שמשום מרקט", "city": " נצרת", "address": " רח 1000 44 ", "location": {"lat": 32.6932261, "lng": 35.2859356}, "datetime": [{"key": 171, "date": " 24/02/2021", "time_start": "15:45", "time_end": "16:00"}, {"key": 2198, "date": " 20/02/2021", "time_start": "15:45", "time_end": "21:00"}]}, {"key": 172, "name": " מגה בעיר רוטשילד בת ים", "city": " בת ים", "address": " שד העצמאות 65 ", "location": {"lat": 32.0283833, "lng": 34.7488523}, "datetime": [{"key": 172, "date": " 24/02/2021", "time_start": "15:40", "time_end": "15:50"}]}, {"key": 174, "name": " סופר פארם קניון רחובות", "city": " רחובות", "address": " ביל''ו 2 ", "location": {"lat": 31.8937669, "lng": 34.8071159}, "datetime": [{"key": 174, "date": " 24/02/2021", "time_start": "15:30", "time_end": "16:00"}, {"key": 175, "date": " 24/02/2021", "time_start": "15:30", "time_end": "16:30"}, {"key": 221, "date": " 24/02/2021", "time_start": "11:45", "time_end": "12:15"}, {"key": 3641, "date": " 17/02/2021", "time_start": "15:00", "time_end": "15:30"}]}, {"key": 176, "name": " שופרסל שלי יא אשדוד", "city": " אשדוד", "address": " כנרת 71 ", "location": {"lat": 31.7841442, "lng": 34.6342068}, "datetime": [{"key": 176, "date": " 24/02/2021", "time_start": "15:10", "time_end": "15:45"}]}, {"key": 177, "name": " גן משחקים לילדים", "city": " באר שבע", "address": " ", "location": {"lat": 31.2611885, "lng": 34.7605518}, "datetime": [{"key": 177, "date": " 24/02/2021", "time_start": "15:00", "time_end": "15:45"}, {"key": 462, "date": " 23/02/2021", "time_start": "16:20", "time_end": "18:00"}, {"key": 6914, "date": " 13/02/2021", "time_start": "12:00", "time_end": "13:30"}]}, {"key": 179, "name": " מרפאה", "city": " אבטין", "address": " ", "location": {"lat": 32.760533, "lng": 35.111907}, "datetime": [{"key": 179, "date": " 24/02/2021", "time_start": "15:00", "time_end": "16:00"}, {"key": 5438, "date": " 15/02/2021", "time_start": "09:00", "time_end": "09:30"}]}, {"key": 180, "name": " ניו דלהי", "city": " מודיעין-מכבים-רעות", "address": " לב העיר 2 ", "location": {"lat": 31.9060652, "lng": 35.0169874}, "datetime": [{"key": 180, "date": " 24/02/2021", "time_start": "15:00", "time_end": "16:00"}]}, {"key": 181, "name": " רמי לוי מחלקת משקאות", "city": " אשקלון", "address": " ", "location": {"lat": 31.6620347, "lng": 34.5950934}, "datetime": [{"key": 181, "date": " 24/02/2021", "time_start": "14:45", "time_end": "15:45"}, {"key": 2846, "date": " 18/02/2021", "time_start": "20:30", "time_end": "21:00"}, {"key": 2977, "date": " 18/02/2021", "time_start": "16:00", "time_end": "18:00"}, {"key": 3839, "date": " 17/02/2021", "time_start": "09:00", "time_end": "10:00"}]}, {"key": 182, "name": " אושר עד גבעת שאול", "city": " ירושלים", "address": " בית הדפוס 29 ", "location": {"lat": 31.7852588, "lng": 35.1830189}, "datetime": [{"key": 182, "date": " 24/02/2021", "time_start": "14:30", "time_end": "16:30"}, {"key": 795, "date": " 22/02/2021", "time_start": "22:00", "time_end": "23:00"}, {"key": 802, "date": " 22/02/2021", "time_start": "20:30", "time_end": "22:00"}, {"key": 1711, "date": " 21/02/2021", "time_start": "11:00", "time_end": "12:00"}, {"key": 2827, "date": " 18/02/2021", "time_start": "22:00", "time_end": "22:30"}, {"key": 3043, "date": " 18/02/2021", "time_start": "14:00", "time_end": "15:00"}, {"key": 3522, "date": " 17/02/2021", "time_start": "18:00", "time_end": "20:00"}, {"key": 4160, "date": " 16/02/2021", "time_start": "20:30", "time_end": "22:00"}, {"key": 4197, "date": " 16/02/2021", "time_start": "18:00", "time_end": "21:00"}, {"key": 4446, "date": " 16/02/2021", "time_start": "12:00", "time_end": "15:00"}, {"key": 6774, "date": " 13/02/2021", "time_start": "19:00", "time_end": "22:00"}]}, {"key": 183, "name": " גן חבד רחבעם באר שבע", "city": " באר שבע", "address": " רחבעם זאבי  ", "location": {"lat": 32.0097691, "lng": 34.7508389}, "datetime": [{"key": 183, "date": " 24/02/2021", "time_start": "14:30", "time_end": "15:00"}, {"key": 516, "date": " 23/02/2021", "time_start": "14:30", "time_end": "15:00"}, {"key": 945, "date": " 22/02/2021", "time_start": "15:00", "time_end": "15:30"}, {"key": 1598, "date": " 21/02/2021", "time_start": "15:00", "time_end": "15:30"}]}, {"key": 185, "name": " אמפי פארק בני עיש", "city": " \"בני עי\"\"ש\"", "address": "  19-33 ", "location": {"lat": 31.7881287, "lng": 34.7618654}, "datetime": [{"key": 185, "date": " 24/02/2021", "time_start": "14:25", "time_end": "14:40"}]}, {"key": 186, "name": " ביגוד", "city": " פרדס חנה-כרכור", "address": " ", "location": {"lat": 32.488873, "lng": 34.969849}, "datetime": [{"key": 186, "date": " 24/02/2021", "time_start": "14:15", "time_end": "22:00"}, {"key": 478, "date": " 23/02/2021", "time_start": "15:30", "time_end": "22:00"}, {"key": 1136, "date": " 22/02/2021", "time_start": "09:00", "time_end": "15:30"}, {"key": 1803, "date": " 21/02/2021", "time_start": "09:00", "time_end": "15:30"}]}, {"key": 188, "name": " בית אלדיאפה", "city": " טירה", "address": " ", "location": {"lat": 32.235466, "lng": 34.950506}, "datetime": [{"key": 188, "date": " 24/02/2021", "time_start": "14:00", "time_end": "14:30"}, {"key": 350, "date": " 24/02/2021", "time_start": "00:00", "time_end": "00:00"}, {"key": 515, "date": " 23/02/2021", "time_start": "14:30", "time_end": "15:00"}, {"key": 1200, "date": " 22/02/2021", "time_start": "08:00", "time_end": "14:00"}, {"key": 1878, "date": " 21/02/2021", "time_start": "08:00", "time_end": "14:00"}, {"key": 3235, "date": " 18/02/2021", "time_start": "08:00", "time_end": "14:30"}, {"key": 3260, "date": " 18/02/2021", "time_start": "08:00", "time_end": "14:00"}, {"key": 3889, "date": " 17/02/2021", "time_start": "08:00", "time_end": "14:00"}, {"key": 5248, "date": " 15/02/2021", "time_start": "12:30", "time_end": "13:00"}, {"key": 5254, "date": " 15/02/2021", "time_start": "12:00", "time_end": "12:30"}]}, {"key": 190, "name": " דרייב אין אולם התעמלות עראבה", "city": " עראבה", "address": " ", "location": {"lat": 32.1092396, "lng": 34.8107547}, "datetime": [{"key": 190, "date": " 24/02/2021", "time_start": "14:00", "time_end": "15:30"}, {"key": 2306, "date": " 20/02/2021", "time_start": "09:00", "time_end": "10:00"}, {"key": 2718, "date": " 19/02/2021", "time_start": "08:00", "time_end": "18:00"}, {"key": 3284, "date": " 18/02/2021", "time_start": "08:00", "time_end": "18:00"}, {"key": 4682, "date": " 16/02/2021", "time_start": "08:00", "time_end": "19:00"}]}, {"key": 191, "name": " חנות", "city": " אריאל", "address": " ", "location": {"lat": 32.1007372, "lng": 35.17014260000001}, "datetime": [{"key": 191, "date": " 24/02/2021", "time_start": "14:00", "time_end": "15:00"}]}, {"key": 192, "name": " חנות בום", "city": " רמלה", "address": " צופית 40 ", "location": {"lat": 31.9329259, "lng": 34.8887589}, "datetime": [{"key": 192, "date": " 24/02/2021", "time_start": "14:00", "time_end": "16:00"}]}, {"key": 193, "name": " חנות מקס סטוק", "city": " ראשון לציון", "address": "  1 ", "location": {"lat": 31.9936111, "lng": 34.7686111}, "datetime": [{"key": 193, "date": " 24/02/2021", "time_start": "14:00", "time_end": "14:30"}, {"key": 938, "date": " 22/02/2021", "time_start": "15:15", "time_end": "15:45"}, {"key": 5078, "date": " 15/02/2021", "time_start": "17:00", "time_end": "17:20"}]}, {"key": 194, "name": " סינימה סיטי ראשלצ", "city": " ראשון לציון", "address": "  3 ", "location": {"lat": 31.984002, "lng": 34.7709589}, "datetime": [{"key": 194, "date": " 24/02/2021", "time_start": "14:00", "time_end": "15:00"}]}, {"key": 195, "name": " קצביה בבילו אנגוס דבח", "city": " רחובות", "address": " ביל''ו 2 ", "location": {"lat": 31.892773, "lng": 34.811272}, "datetime": [{"key": 195, "date": " 24/02/2021", "time_start": "14:00", "time_end": "20:00"}, {"key": 702, "date": " 23/02/2021", "time_start": "08:00", "time_end": "14:00"}, {"key": 1119, "date": " 22/02/2021", "time_start": "09:30", "time_end": "13:00"}, {"key": 1650, "date": " 21/02/2021", "time_start": "14:00", "time_end": "20:00"}, {"key": 2105, "date": " 21/02/2021", "time_start": "00:00", "time_end": "00:00"}, {"key": 4399, "date": " 16/02/2021", "time_start": "13:00", "time_end": "14:00"}]}, {"key": 196, "name": " שיקשוק", "city": " קרית ביאליק", "address": " קרן היסוד 63 ", "location": {"lat": 32.8356631, "lng": 35.0884055}, "datetime": [{"key": 196, "date": " 24/02/2021", "time_start": "14:00", "time_end": "20:00"}, {"key": 538, "date": " 23/02/2021", "time_start": "14:00", "time_end": "20:00"}, {"key": 989, "date": " 22/02/2021", "time_start": "14:00", "time_end": "20:00"}, {"key": 1652, "date": " 21/02/2021", "time_start": "14:00", "time_end": "20:00"}]}, {"key": 197, "name": " גן שעשועים", "city": " אשקלון", "address": " ברייר דב  ", "location": {"lat": 31.6768634, "lng": 34.5669673}, "datetime": [{"key": 197, "date": " 24/02/2021", "time_start": "13:30", "time_end": "15:30"}]}, {"key": 198, "name": " אסף הרופא", "city": " תל אביב - יפו", "address": " אסף הרופא  ", "location": {"lat": 32.0398853, "lng": 34.7489399}, "datetime": [{"key": 198, "date": " 24/02/2021", "time_start": "13:00", "time_end": "22:00"}, {"key": 1341, "date": " 22/02/2021", "time_start": "00:00", "time_end": "00:00"}, {"key": 3084, "date": " 18/02/2021", "time_start": "12:00", "time_end": "12:30"}]}, {"key": 200, "name": " חנות מרכז הלבשה במתחם קינג סטו", "city": " באר שבע", "address": " ", "location": {"lat": 31.2435752, "lng": 34.8132989}, "datetime": [{"key": 200, "date": " 24/02/2021", "time_start": "13:00", "time_end": "15:00"}]}, {"key": 201, "name": " טופולסקי", "city": " קרית אתא", "address": " דרך חיפה 50 ", "location": {"lat": 32.8073091, "lng": 35.0734972}, "datetime": [{"key": 201, "date": " 24/02/2021", "time_start": "13:00", "time_end": "14:00"}]}, {"key": 202, "name": " סופרמרקט ומסירת דואר", "city": " עילוט", "address": " ", "location": {"lat": 32.6997325, "lng": 35.2971146}, "datetime": [{"key": 202, "date": " 24/02/2021", "time_start": "13:00", "time_end": "13:03"}]}, {"key": 203, "name": " קניות", "city": " אשקלון", "address": " אלי כהן 41 ", "location": {"lat": 31.6694355, "lng": 34.5815964}, "datetime": [{"key": 203, "date": " 24/02/2021", "time_start": "13:00", "time_end": "13:40"}]}, {"key": 204, "name": " ביג סטור ורמי לוי", "city": " באר שבע", "address": " הע''ל 30 ", "location": {"lat": 31.2327489, "lng": 34.79612460000001}, "datetime": [{"key": 204, "date": " 24/02/2021", "time_start": "12:30", "time_end": "14:30"}, {"key": 1140, "date": " 22/02/2021", "time_start": "09:00", "time_end": "12:00"}, {"key": 1502, "date": " 21/02/2021", "time_start": "17:30", "time_end": "18:00"}]}, {"key": 205, "name": " גרנד קניון", "city": " באר שבע", "address": "  125 ", "location": {"lat": 31.2503705, "lng": 34.7717336}, "datetime": [{"key": 205, "date": " 24/02/2021", "time_start": "12:15", "time_end": "14:00"}, {"key": 865, "date": " 22/02/2021", "time_start": "17:45", "time_end": "19:30"}, {"key": 877, "date": " 22/02/2021", "time_start": "17:00", "time_end": "21:00"}, {"key": 962, "date": " 22/02/2021", "time_start": "15:00", "time_end": "17:00"}, {"key": 983, "date": " 22/02/2021", "time_start": "14:00", "time_end": "15:00"}, {"key": 2958, "date": " 18/02/2021", "time_start": "16:25", "time_end": "16:30"}, {"key": 4494, "date": " 16/02/2021", "time_start": "10:30", "time_end": "11:00"}, {"key": 6084, "date": " 14/02/2021", "time_start": "13:15", "time_end": "15:00"}]}, {"key": 206, "name": " אושר עד קריית ביאליק", "city": " קרית ביאליק", "address": " מולר הנס 6 ", "location": {"lat": 32.8618235, "lng": 35.098291}, "datetime": [{"key": 206, "date": " 24/02/2021", "time_start": "12:00", "time_end": "12:40"}, {"key": 1507, "date": " 21/02/2021", "time_start": "17:00", "time_end": "18:00"}, {"key": 3525, "date": " 17/02/2021", "time_start": "18:00", "time_end": "19:00"}, {"key": 5341, "date": " 15/02/2021", "time_start": "10:00", "time_end": "10:30"}, {"key": 6222, "date": " 14/02/2021", "time_start": "10:30", "time_end": "11:30"}]}, {"key": 207, "name": " גינה ציבורית", "city": " נתניה", "address": " חיטמן עוזי  ", "location": {"lat": 32.2856993, "lng": 34.8492883}, "datetime": [{"key": 207, "date": " 24/02/2021", "time_start": "12:00", "time_end": "15:00"}, {"key": 5922, "date": " 14/02/2021", "time_start": "16:30", "time_end": "18:00"}]}, {"key": 208, "name": " היכל התרבות אשקלון", "city": " אשקלון", "address": " הנשיא 82 ", "location": {"lat": 31.6647674, "lng": 34.56202150000001}, "datetime": [{"key": 208, "date": " 24/02/2021", "time_start": "12:00", "time_end": "12:20"}, {"key": 212, "date": " 24/02/2021", "time_start": "12:00", "time_end": "12:15"}, {"key": 214, "date": " 24/02/2021", "time_start": "12:00", "time_end": "12:15"}, {"key": 998, "date": " 22/02/2021", "time_start": "13:10", "time_end": "13:15"}, {"key": 2580, "date": " 19/02/2021", "time_start": "10:55", "time_end": "11:30"}, {"key": 3672, "date": " 17/02/2021", "time_start": "13:30", "time_end": "14:45"}, {"key": 4253, "date": " 16/02/2021", "time_start": "16:30", "time_end": "17:00"}]}, {"key": 209, "name": " חנות", "city": " אשקלון", "address": " הגבורה 11 ", "location": {"lat": 31.6651013, "lng": 34.5661204}, "datetime": [{"key": 209, "date": " 24/02/2021", "time_start": "12:00", "time_end": "21:30"}, {"key": 273, "date": " 24/02/2021", "time_start": "08:25", "time_end": "09:35"}, {"key": 565, "date": " 23/02/2021", "time_start": "12:00", "time_end": "21:30"}, {"key": 1117, "date": " 22/02/2021", "time_start": "09:40", "time_end": "10:00"}]}, {"key": 211, "name": " מרינה", "city": " אשקלון", "address": " ", "location": {"lat": 31.680779, "lng": 34.557664}, "datetime": [{"key": 211, "date": " 24/02/2021", "time_start": "12:00", "time_end": "15:00"}, {"key": 916, "date": " 22/02/2021", "time_start": "16:00", "time_end": "16:30"}, {"key": 2217, "date": " 20/02/2021", "time_start": "14:30", "time_end": "16:00"}]}, {"key": 213, "name": " מתחם לבדיקת קורונה", "city": " נתיבות", "address": " חיל אוויר  ", "location": {"lat": 31.423196, "lng": 34.595254}, "datetime": [{"key": 213, "date": " 24/02/2021", "time_start": "12:00", "time_end": "12:30"}, {"key": 445, "date": " 23/02/2021", "time_start": "17:00", "time_end": "17:15"}, {"key": 446, "date": " 23/02/2021", "time_start": "17:00", "time_end": "17:30"}, {"key": 3664, "date": " 17/02/2021", "time_start": "14:00", "time_end": "14:30"}, {"key": 3744, "date": " 17/02/2021", "time_start": "11:00", "time_end": "11:30"}, {"key": 5447, "date": " 15/02/2021", "time_start": "08:40", "time_end": "09:00"}]}, {"key": 215, "name": " סופר דוש", "city": " בת ים", "address": " שד יוספטל גיורא 92 ", "location": {"lat": 32.0151827, "lng": 34.7561673}, "datetime": [{"key": 215, "date": " 24/02/2021", "time_start": "12:00", "time_end": "13:30"}, {"key": 3478, "date": " 18/02/2021", "time_start": "00:00", "time_end": "00:00"}, {"key": 3758, "date": " 17/02/2021", "time_start": "10:30", "time_end": "22:00"}, {"key": 4319, "date": " 16/02/2021", "time_start": "15:00", "time_end": "22:00"}, {"key": 4978, "date": " 15/02/2021", "time_start": "20:00", "time_end": "21:00"}, {"key": 6105, "date": " 14/02/2021", "time_start": "13:00", "time_end": "13:30"}, {"key": 6232, "date": " 14/02/2021", "time_start": "10:30", "time_end": "22:00"}]}, {"key": 216, "name": " קניון חדרה", "city": " חדרה", "address": " שד רוטשילד 40 ", "location": {"lat": 32.4378941, "lng": 34.9219993}, "datetime": [{"key": 216, "date": " 24/02/2021", "time_start": "12:00", "time_end": "13:00"}, {"key": 1503, "date": " 21/02/2021", "time_start": "17:30", "time_end": "18:00"}, {"key": 4244, "date": " 16/02/2021", "time_start": "17:00", "time_end": "19:00"}]}, {"key": 217, "name": " קרמיקה שרוני", "city": " תל אביב - יפו", "address": " התערוכה 2 ", "location": {"lat": 32.0975765, "lng": 34.7761766}, "datetime": [{"key": 217, "date": " 24/02/2021", "time_start": "12:00", "time_end": "13:00"}]}, {"key": 220, "name": " סניף עזרא", "city": " רחובות", "address": " חפץ חיים  ", "location": {"lat": 31.8905457, "lng": 34.824907}, "datetime": [{"key": 220, "date": " 24/02/2021", "time_start": "11:50", "time_end": "13:00"}]}, {"key": 222, "name": " ראשונים", "city": " הרצליה", "address": " הנדיב 8 ", "location": {"lat": 32.1686753, "lng": 34.8406241}, "datetime": [{"key": 222, "date": " 24/02/2021", "time_start": "11:45", "time_end": "14:00"}]}, {"key": 223, "name": " ברזילי", "city": " אשקלון", "address": " ההסתדרות 2 ", "location": {"lat": 31.6622785, "lng": 34.5592871}, "datetime": [{"key": 223, "date": " 24/02/2021", "time_start": "11:30", "time_end": "12:30"}, {"key": 911, "date": " 22/02/2021", "time_start": "16:00", "time_end": "21:00"}, {"key": 974, "date": " 22/02/2021", "time_start": "14:00", "time_end": "23:59"}, {"key": 1043, "date": " 22/02/2021", "time_start": "11:30", "time_end": "12:50"}, {"key": 4010, "date": " 17/02/2021", "time_start": "07:00", "time_end": "18:00"}, {"key": 4079, "date": " 17/02/2021", "time_start": "01:00", "time_end": "02:00"}]}, {"key": 224, "name": " בית ספר בנות ציון", "city": " חולון", "address": " הרב קוק 7 ", "location": {"lat": 32.0210658, "lng": 34.7799051}, "datetime": [{"key": 224, "date": " 24/02/2021", "time_start": "11:15", "time_end": "13:00"}]}, {"key": 227, "name": " מספרה", "city": " פתח תקווה", "address": " עין גנים 96 ", "location": {"lat": 32.081579, "lng": 34.899778}, "datetime": [{"key": 227, "date": " 24/02/2021", "time_start": "11:00", "time_end": "19:00"}, {"key": 582, "date": " 23/02/2021", "time_start": "11:00", "time_end": "19:00"}, {"key": 955, "date": " 22/02/2021", "time_start": "15:00", "time_end": "19:00"}]}, {"key": 228, "name": " מתחם לבדיקת קורונה", "city": " אופקים", "address": " ", "location": {"lat": 31.311337, "lng": 34.622824}, "datetime": [{"key": 228, "date": " 24/02/2021", "time_start": "11:00", "time_end": "11:30"}, {"key": 229, "date": " 24/02/2021", "time_start": "11:00", "time_end": "11:30"}, {"key": 1523, "date": " 21/02/2021", "time_start": "17:00", "time_end": "17:20"}, {"key": 4358, "date": " 16/02/2021", "time_start": "14:00", "time_end": "14:15"}, {"key": 4359, "date": " 16/02/2021", "time_start": "14:00", "time_end": "15:15"}, {"key": 5876, "date": " 14/02/2021", "time_start": "18:00", "time_end": "18:15"}]}, {"key": 230, "name": " מתחם לבדיקת קורונה", "city": " באר שבע", "address": " בית אל 31 ", "location": {"lat": 31.2441089, "lng": 34.7735649}, "datetime": [{"key": 230, "date": " 24/02/2021", "time_start": "10:35", "time_end": "10:50"}]}, {"key": 231, "name": " איקאה", "city": " נתניה", "address": "  17 ", "location": {"lat": 32.2738645, "lng": 34.8610397}, "datetime": [{"key": 231, "date": " 24/02/2021", "time_start": "10:30", "time_end": "11:00"}]}, {"key": 232, "name": " בית חינוך רבין תל מונד", "city": " תל מונד", "address": " הדקל 64 ", "location": {"lat": 32.2539487, "lng": 34.920559}, "datetime": [{"key": 232, "date": " 24/02/2021", "time_start": "10:30", "time_end": "11:50"}, {"key": 4092, "date": " 17/02/2021", "time_start": "00:00", "time_end": "00:00"}]}, {"key": 233, "name": " סופר אושר עד", "city": " באר שבע", "address": " הקוצר 15 ", "location": {"lat": 31.2133285, "lng": 34.8110105}, "datetime": [{"key": 233, "date": " 24/02/2021", "time_start": "10:30", "time_end": "11:30"}, {"key": 851, "date": " 22/02/2021", "time_start": "18:00", "time_end": "20:00"}, {"key": 2569, "date": " 19/02/2021", "time_start": "11:00", "time_end": "12:00"}, {"key": 2896, "date": " 18/02/2021", "time_start": "18:00", "time_end": "18:30"}, {"key": 2906, "date": " 18/02/2021", "time_start": "18:00", "time_end": "20:00"}, {"key": 4173, "date": " 16/02/2021", "time_start": "19:30", "time_end": "21:00"}, {"key": 5035, "date": " 15/02/2021", "time_start": "18:00", "time_end": "20:00"}]}, {"key": 234, "name": " קניון רננים רעננה", "city": " רעננה", "address": " המלאכה 2 ", "location": {"lat": 32.1974472, "lng": 34.8780966}, "datetime": [{"key": 234, "date": " 24/02/2021", "time_start": "10:30", "time_end": "12:30"}, {"key": 1732, "date": " 21/02/2021", "time_start": "11:00", "time_end": "14:00"}]}, {"key": 235, "name": " תחנת דלק", "city": " אילת", "address": " דרך הערבה 1 ", "location": {"lat": 29.555155, "lng": 34.955183}, "datetime": [{"key": 235, "date": " 24/02/2021", "time_start": "10:30", "time_end": "10:55"}]}, {"key": 237, "name": " בנק הפועלים", "city": " רחובות", "address": " הרצל 179 ", "location": {"lat": 31.8984635, "lng": 34.810355}, "datetime": [{"key": 237, "date": " 24/02/2021", "time_start": "10:00", "time_end": "11:00"}]}, {"key": 238, "name": " חנות", "city": " אילת", "address": " המלאכה 1 ", "location": {"lat": 29.5630736, "lng": 34.9594488}, "datetime": [{"key": 238, "date": " 24/02/2021", "time_start": "10:00", "time_end": "10:21"}, {"key": 2138, "date": " 20/02/2021", "time_start": "20:00", "time_end": "20:30"}]}, {"key": 240, "name": " מכללת קלירינג סנטר", "city": " תל אביב - יפו", "address": " שטיבל 2 ", "location": {"lat": 32.0658253, "lng": 34.78832560000001}, "datetime": [{"key": 240, "date": " 24/02/2021", "time_start": "10:00", "time_end": "21:30"}, {"key": 846, "date": " 22/02/2021", "time_start": "18:30", "time_end": "22:00"}]}, {"key": 242, "name": " סופר", "city": " נתניה", "address": " הרצל 60 ", "location": {"lat": 32.3261415, "lng": 34.8618756}, "datetime": [{"key": 242, "date": " 24/02/2021", "time_start": "10:00", "time_end": "11:00"}, {"key": 1030, "date": " 22/02/2021", "time_start": "12:00", "time_end": "14:00"}, {"key": 4240, "date": " 16/02/2021", "time_start": "17:00", "time_end": "18:00"}, {"key": 4420, "date": " 16/02/2021", "time_start": "12:30", "time_end": "13:30"}, {"key": 4443, "date": " 16/02/2021", "time_start": "12:00", "time_end": "13:00"}]}, {"key": 244, "name": " עריית תל אביב", "city": " תל אביב - יפו", "address": "  69 ", "location": {"lat": 32.0817472, "lng": 34.7808277}, "datetime": [{"key": 244, "date": " 24/02/2021", "time_start": "10:00", "time_end": "19:00"}, {"key": 602, "date": " 23/02/2021", "time_start": "10:00", "time_end": "19:00"}, {"key": 1109, "date": " 22/02/2021", "time_start": "10:00", "time_end": "19:00"}, {"key": 1778, "date": " 21/02/2021", "time_start": "10:00", "time_end": "19:00"}, {"key": 6578, "date": " 14/02/2021", "time_start": "07:00", "time_end": "09:30"}]}, {"key": 245, "name": " רמי לוי", "city": " מודיעין-מכבים-רעות", "address": "  3 ", "location": {"lat": 31.9195477, "lng": 34.965069}, "datetime": [{"key": 245, "date": " 24/02/2021", "time_start": "10:00", "time_end": "12:30"}, {"key": 2525, "date": " 19/02/2021", "time_start": "12:00", "time_end": "12:31"}, {"key": 2675, "date": " 19/02/2021", "time_start": "09:00", "time_end": "10:00"}, {"key": 5061, "date": " 15/02/2021", "time_start": "17:30", "time_end": "18:00"}, {"key": 6288, "date": " 14/02/2021", "time_start": "10:00", "time_end": "11:00"}]}, {"key": 246, "name": " שופרסל דיל", "city": " באר שבע", "address": "  28 ", "location": {"lat": 31.2825647, "lng": 34.7992138}, "datetime": [{"key": 246, "date": " 24/02/2021", "time_start": "10:00", "time_end": "12:00"}, {"key": 2925, "date": " 18/02/2021", "time_start": "17:30", "time_end": "18:30"}, {"key": 5175, "date": " 15/02/2021", "time_start": "15:00", "time_end": "16:00"}]}, {"key": 248, "name": " דואר מרכזי", "city": " אילת", "address": " שד התמרים 19 ", "location": {"lat": 29.5557946, "lng": 34.9539695}, "datetime": [{"key": 248, "date": " 24/02/2021", "time_start": "09:40", "time_end": "10:00"}]}, {"key": 249, "name": " ביקור רופא אשקלון", "city": " אשקלון", "address": " שביל העוז 1 ", "location": {"lat": 31.6650973, "lng": 34.5662402}, "datetime": [{"key": 249, "date": " 24/02/2021", "time_start": "09:30", "time_end": "09:45"}, {"key": 2121, "date": " 20/02/2021", "time_start": "21:00", "time_end": "23:55"}]}, {"key": 251, "name": " טיפת חלב", "city": " שדרות", "address": " ברית ערים 4 ", "location": {"lat": 31.525233, "lng": 34.5993031}, "datetime": [{"key": 251, "date": " 24/02/2021", "time_start": "09:30", "time_end": "10:00"}]}, {"key": 252, "name": " ממד צומח", "city": " ראש העין", "address": "  22 ", "location": {"lat": 32.095838, "lng": 34.952177}, "datetime": [{"key": 252, "date": " 24/02/2021", "time_start": "09:30", "time_end": "12:00"}, {"key": 682, "date": " 23/02/2021", "time_start": "08:00", "time_end": "12:45"}, {"key": 979, "date": " 22/02/2021", "time_start": "14:00", "time_end": "14:30"}, {"key": 1238, "date": " 22/02/2021", "time_start": "08:00", "time_end": "12:45"}, {"key": 1920, "date": " 21/02/2021", "time_start": "08:00", "time_end": "12:45"}, {"key": 2552, "date": " 19/02/2021", "time_start": "11:00", "time_end": "12:00"}]}, {"key": 253, "name": " חנות", "city": " אילת", "address": " שד התמרים 77 ", "location": {"lat": 29.5661323, "lng": 34.9505584}, "datetime": [{"key": 253, "date": " 24/02/2021", "time_start": "09:11", "time_end": "09:35"}]}, {"key": 254, "name": " בית יעקב", "city": " פתח תקווה", "address": " רוטשילד 64 ", "location": {"lat": 32.0886604, "lng": 34.8809274}, "datetime": [{"key": 254, "date": " 24/02/2021", "time_start": "09:00", "time_end": "12:00"}, {"key": 641, "date": " 23/02/2021", "time_start": "08:00", "time_end": "13:00"}, {"key": 1180, "date": " 22/02/2021", "time_start": "08:00", "time_end": "13:00"}, {"key": 1855, "date": " 21/02/2021", "time_start": "08:00", "time_end": "13:00"}]}, {"key": 255, "name": " דרייב אין  לצורך בדיקת קורונה", "city": " ראשון לציון", "address": " יוסף טומי לפיד 4 ", "location": {"lat": 31.9760869, "lng": 34.754454}, "datetime": [{"key": 255, "date": " 24/02/2021", "time_start": "09:00", "time_end": "09:30"}, {"key": 256, "date": " 24/02/2021", "time_start": "09:00", "time_end": "09:30"}, {"key": 4389, "date": " 16/02/2021", "time_start": "13:00", "time_end": "13:30"}]}, {"key": 257, "name": " מבדק", "city": " הרצליה", "address": " הסדנאות 7 ", "location": {"lat": 32.1612029, "lng": 34.8066439}, "datetime": [{"key": 257, "date": " 24/02/2021", "time_start": "09:00", "time_end": "09:30"}]}, {"key": 258, "name": " מועדון גיל הזהב", "city": " ירוחם", "address": " ", "location": {"lat": 30.9879489, "lng": 34.9258956}, "datetime": [{"key": 258, "date": " 24/02/2021", "time_start": "09:00", "time_end": "14:00"}, {"key": 1142, "date": " 22/02/2021", "time_start": "09:00", "time_end": "14:00"}]}, {"key": 259, "name": " מקומות ציבוריים נוספים סופר או", "city": " טבריה", "address": " החרושת 10 ", "location": {"lat": 32.7791922, "lng": 35.5029054}, "datetime": [{"key": 259, "date": " 24/02/2021", "time_start": "09:00", "time_end": "11:00"}, {"key": 1297, "date": " 22/02/2021", "time_start": "07:00", "time_end": "16:00"}, {"key": 2000, "date": " 21/02/2021", "time_start": "07:00", "time_end": "12:00"}, {"key": 2887, "date": " 18/02/2021", "time_start": "18:30", "time_end": "18:50"}, {"key": 6095, "date": " 14/02/2021", "time_start": "13:00", "time_end": "14:00"}]}, {"key": 260, "name": " מרלוג צריפין", "city": " לא רשום", "address": " ", "location": {"lat": 31.957328, "lng": 34.840566}, "datetime": [{"key": 260, "date": " 24/02/2021", "time_start": "09:00", "time_end": "17:00"}]}, {"key": 261, "name": " פעילות פורים של בית הספר", "city": " באר שבע", "address": " ", "location": {"lat": 31.2577678, "lng": 34.7636662}, "datetime": [{"key": 261, "date": " 24/02/2021", "time_start": "09:00", "time_end": "12:00"}]}, {"key": 262, "name": " קופת חולים", "city": " שדרות", "address": " אהבת ישראל 7 ", "location": {"lat": 31.5204769, "lng": 34.595155}, "datetime": [{"key": 262, "date": " 24/02/2021", "time_start": "09:00", "time_end": "10:00"}]}, {"key": 263, "name": " קופת חולים מכבי", "city": " צפת", "address": " ", "location": {"lat": 32.9670307, "lng": 35.494148}, "datetime": [{"key": 263, "date": " 24/02/2021", "time_start": "09:00", "time_end": "10:00"}]}, {"key": 264, "name": " שופרסל", "city": " סביון", "address": " השקמה 1 ", "location": {"lat": 32.049695, "lng": 34.8753671}, "datetime": [{"key": 264, "date": " 24/02/2021", "time_start": "09:00", "time_end": "09:16"}]},